var data = {"markers": [
 {"town":"Namushasha River Lodge(Kongola), Caprivi, Namibia, Africa","lat":"-17.98636","long":"23.29582","surl":"weather.namsearch.com/namushasha/index.php","fcode":"cam","nets":"NAMWN","conds":"day_clear.gif,Dry,26 C,36%,10 C,ESE,1 kmh,3,0.0 mm,1007.4 hPa,Rising Slowly"},

 {"town":"Swakopmund, Erongo, Namibia, Africa","lat":"-22.679005","long":"14.531050","surl":"other.weather.namsearch.com/swakop/wxindex.php","fcode":"cam","nets":"NAMWN","conds":"day_cloudy.gif,Overcast,12 C,76%,8 C,SW,4 kmh,5,0.0 mm,1020.1 hPa,Rising Slowly"},

 {"town":"Walvis Bay, Erongo, Namibia, Africa","lat":"-22.956942","long":"14.513540","surl":"www.namibiaweather.info/walvisbay.php","fcode":"cam","nets":"NAMWN","conds":"Offline"},

 {"town":"Farm Skemerhoek, Hardap, Namibia, Africa","lat":"-24.886555","long":"19.847624","surl":"weather.namsearch.com/Skemerhoek/wxindex.php","fcode":"cam","nets":"NAMWN","conds":"Offline"},

 {"town":"Kalahari Farmhouse (Stampriet), Hardap, Namibia, Africa","lat":"-24.43020","long":"18.10052","surl":"weather.namsearch.com/Anib/wxindex.php","fcode":"cam","nets":"NAMWN","conds":"day_clear.gif,Dry,15 C,28%,-4 C,SW,0 kmh,,0.0 mm,1012.7 hPa,Steady"},

 {"town":"Namib Desert Lodge, Hardap, Namibia, Africa","lat":"-24.06590","long":"15.54171","surl":"weather.namsearch.com/namibdesert/wxindex.php","fcode":"wx","nets":"NAMWN","conds":"day_clear.gif,Dry,11 C,30%,-6 C,SSW,0 kmh,,0.0 mm,1015.1 hPa,Steady"},

 {"town":"FishRiver Canon Roadhouse, Karas, Namibia, Africa","lat":"-27.52284","long":"17.81388","surl":"weather.namsearch.com/roadhouse/wxindex.php","fcode":"cam","nets":"NAMWN","conds":"day_clear.gif,Dry,12 C,69%,6 C,SW,14 kmh,18,0.0 mm,1017.5 hPa,Rising Slowly"},

 {"town":"Klein Aus Vista, Karas, Namibia, Africa","lat":"-26.65242","long":"16.24464","surl":"weather.namsearch.com/aus/wxindex.php","fcode":"cam","nets":"NAMWN","conds":"day_cloudy.gif,Overcast,11 C,45%,-1 C,SE,11 kmh,11,0.0 mm,1015.6 hPa,Rising Slowly"},

 {"town":"Oranjemund, Karas, Namibia, Africa","lat":"-28.587423","long":"16.444515","surl":"weather.namsearch.com/oranjemund/wxindex.php","fcode":"cam","nets":"NAMWN","conds":"Offline"},

 {"town":"Hakusembe River Lodge(Rundu), Kavango, Namibia, Africa","lat":"-17.85068","long":"19.67132","surl":"weather.namsearch.com/hakusembe/index.php","fcode":"cam","nets":"NAMWN","conds":"day_clear.gif,Dry,25 C,40%,10 C,SE,4 kmh,3,0.0 mm,1011.8 hPa,Rising Slowly"},

 {"town":"Auas Mtns. Regenstein, Khomas, Namibia, Africa","lat":"-22.700346","long":"17.060158","surl":"other.weather.namsearch.com/regenstein/Regensteinwdh.php","fcode":"cam","nets":"NAMWN","conds":"day_clear.gif,Dry,19 C,21%,-4 C,W,17 kmh,21,0.0 mm,1016.8 hPa,Steady"},

 {"town":"Eningu Clayhouse Lodge(Nina), Khomas, Namibia, Africa","lat":"-22.780311","long":"18.017803","surl":"weather.namsearch.com/eningu/index.php","fcode":"wx","nets":"NAMWN","conds":"Offline"},

 {"town":"LuxuryHill(Windhoek), Khomas, Namibia, Africa","lat":"-22.57982","long":"17.09381","surl":"weather.namsearch.com/conserv/index.php","fcode":"wx","nets":"NAMWN","conds":"day_partly_cloudy.gif,Partly Cloudy,21 C,14%,-8 C,SW,0 kmh,,0.0 mm,1008.5 hPa,Steady"},

 {"town":"Olympia, Khomas, Namibia, Africa","lat":"-22.575459","long":"17.073849","surl":"weather.namsearch.com/olympia/index.php","fcode":"wx","nets":"NAMWN","conds":"day_clear.gif,Dry,18 C,23%,-4 C,NE,0 kmh,,0.0 mm,1009.3 hPa,Steady"},

 {"town":"Windhoek, Khomas, Namibia, Africa","lat":"-22.575459","long":"17.073849","surl":"weather.namsearch.com/index.php","fcode":"cam","nets":"NAMWN","conds":"day_partly_cloudy.gif,Partly Cloudy,19 C,20%,-5 C,SSE,0 kmh,,0.0 mm,1010.1 hPa,Steady"},

 {"town":"Damara Mopane(Khorixas), Kunene, Namibia, Africa","lat":"-20.299165","long":"15.173725","surl":"weather.namsearch.com/Khorixas/wxindex.php","fcode":"cam","nets":"NAMWN","conds":"day_clear.gif,Dry,18 C,20%,-6 C,NNW,6 kmh,6,0.0 mm,1003.2 hPa,Steady"},

 {"town":"Etosha Safari Lodge, Kunene, Namibia, Africa","lat":"-19.40580","long":"15.91008","surl":"weather.namsearch.com/etosha/wxindex.php","fcode":"cam","nets":"NAMWN","conds":"day_clear.gif,Dry,21 C,19%,-3 C,N,9 kmh,10,0.0 mm,1007.9 hPa,Rising Slowly"},

 {"town":"Outjo-Farm Liebenwerda, Kunene, Namibia, Africa","lat":"-20.1311","long":"15.80315","surl":"other.weather.namsearch.com/funfarm/index.php","fcode":"wx","nets":"NAMWN","conds":"Offline"},

 {"town":"Omuramba Hunting Lodge, Omaheke, Namibia, Africa","lat":"-21.44223","long":"19.27735","surl":"weather.namsearch.com/omuramba/wxindex.php","fcode":"wx","nets":"NAMWN","conds":"day_clear.gif,Dry,19 C,27%,-1 C,SSE,4 kmh,3,0.0 mm,1009.7 hPa,Steady"},

 {"town":"Hartebeestteich-Süd, Otjozondjupa, Namibia, Africa","lat":"-21.46354","long":"17.84919","surl":"other.weather.namsearch.com/hochfeld/heiser.php","fcode":"wx","nets":"NAMWN","conds":"day_partly_cloudy.gif,Partly Cloudy,20 C,21%,-3 C,SSE,8 kmh,8,0.0 mm,1021.3 hPa,Rising Slowly"},

 {"town":"Calgary, Alberta, Canada","lat":"51.112066","long":"-113.955657","surl":"calgary.westerncawx.net","fcode":"wx","nets":"WCWN","conds":"night_snow.gif,Snow,-2 C,94%,-3 C,ESE,5 kmh,4,0.0 mm,1021.0 hPa,Steady"},

 {"town":"Hanna, Alberta, Canada","lat":"51.643","long":"-111.924","surl":"hannawx.ca","fcode":"all","nets":"WCWN","conds":"night_clear.gif,Clear,-1 C,91%,-3 C,N,2 kmh,5,0.8 mm,1025.1 hPa,Rising Slowly"},

 {"town":"Leduc, Alberta, Canada","lat":"53.2439","long":"-113.5343","surl":"www.moriartey.ca/wd/indexw.php","fcode":"wx","nets":"WCWN","conds":"Offline"},

 {"town":"Abbotsford, British Columbia, Canada","lat":"49.0199","long":"-122.5299","surl":"abbotsfordwx.com/","fcode":"cam","nets":"WCWN","conds":"mist.gif,Mist,10 C,50%,,SSW,0 kmh,,0.0 mm,1016.7 hPa,Steady"},

 {"town":"Delta, British Columbia, Canada","lat":"49.10502","long":"-122.53979","surl":"www.mountainsunsets.com/weather/wx.html","fcode":"cam","nets":"WCWN","conds":"day_cloudy.gif,Overcast,11 C,83%,8 C,SSE,0 kmh,,0.0 mm,1004.6 hPa,Steady"},

 {"town":"Nelson, British Columbia, Canada","lat":"49.30","long":"-117.17","surl":"nelsonbc.westerncawx.net","fcode":"wx","nets":"WCWN","conds":"Offline"},

 {"town":"Surrey, British Columbia, Canada","lat":"48.792046","long":"-123.742889","surl":"zoocrew.homeip.net/weather/","fcode":"cam","nets":"WCWN","conds":"Offline"},

 {"town":"Whiterock, British Columbia, Canada","lat":"49.029670","long":"-122.840540","surl":"www.whiterockweather.com","fcode":"cam","nets":"WCWN","conds":"night_cloudy.gif,Overcast,9 C,96%,8 C,---,0 kmh,,0.2 mm,1015.5 hPa,Steady"},

 {"town":"Morden, Manitoba, Canada","lat":"49.1836","long":"-98.1253","surl":"darethehair.no-ip.org/dmenns/weather.php","fcode":"cam","nets":"CMBWN","conds":",,2 C,73%,,WNW,0 kmh,,0.0 mm,1014.0 hPa,Rising"},

 {"town":"Flowers Cove, Grand Lake, New Brunswick, Canada","lat":"+46.029683","long":"-66.038067","surl":"www.flowers-cove.ca/","fcode":"cam","nets":"CAWN","conds":"night_clear.gif,Clear,15 C,95%,14 C,SSE,13 kmh,16,2.2 mm,999.8 hPa,Falling Rapidly"},

 {"town":"Fredericton, New Brunswick, Canada","lat":"+45.85800","long":"-66.69200","surl":"www.laity.ca/","fcode":"lgt","nets":"CAWN","conds":"night_partly_cloudy.gif,Partly Cloudy,14 C,100%,14 C,S,5 kmh,5,8.8 mm,998.6 hPa,Falling Slowly"},

 {"town":"Bay Roberts, Newfoundland &amp;amp; Labrador, Canada","lat":"+47.58269","long":"-53.28480","surl":"www.bayroberts.com/weather/","fcode":"wx","nets":"CAWN","conds":"Offline"},

 {"town":"Goose Bay, Newfoundland &amp;amp; Labrador, Canada","lat":"+53.29900","long":"-60.28400","surl":"www.goosebayweather.com/","fcode":"wx","nets":"CAWN","conds":"Offline"},

 {"town":"Bayside, Nova Scotia, Canada","lat":"+44.53500","long":"-63.79200","surl":"www.cruzn.ca/weather/Current_Vantage_Pro.htm","fcode":"cam","nets":"CAWN","conds":"Offline"},

 {"town":"Drum Head, Nova Scotia, Canada","lat":"+45.154166","long":"-61.619444","surl":"www.drumheadweather.ca/","fcode":"cam","nets":"CAWN","conds":"night_light_rain.gif,light Drizzle +Mist,15 C,100%,15 C,ESE,26 kmh,,0.0 mm,1009.3 hPa,Falling Rapidly"},

 {"town":"Halifax, Nova Scotia, Canada","lat":"+44.679893","long":"-63.465153","surl":"www.hrmweather.com/","fcode":"wx","nets":"CAWN","conds":"mist.gif,Mist,15 C,100%,15 C,SE,21 kmh,19,0.3 mm,1006.0 hPa,Falling Rapidly"},

 {"town":"Indian Harbour, Nova Scotia, Canada","lat":"+44.51500","long":"-63.9400","surl":"www.raiderracing.com/weather/current_vantage_pro_plus.htm","fcode":"cam","nets":"CAWN","conds":"Offline"},

 {"town":"Sydney, Nova Scotia, Canada","lat":"+46.15903","long":"-60.18649","surl":"pierboy71.tripod.com/weather/","fcode":"wx","nets":"CAWN","conds":"Offline"},

 {"town":"Truro, Nova Scotia, Canada","lat":"+45.35528","long":"-63.29908","surl":"davesweather.net/","fcode":"wx","nets":"CAWN","conds":"night_clear.gif,Clear,15 C,92%,14 C,SE,9 kmh,8,0.0 mm,1004.5 hPa,Falling Slowly"},

 {"town":"Beamsville, Ontario, Canada","lat":"43.176300","long":"-79.471901","surl":"www.beamsvillewx.ca/","fcode":"lgt","nets":"COWN","conds":"night_partly_cloudy.gif,Partly Cloudy,6 C,56%,-3 C,WSW,6 kmh,6,0.0 mm,1017.9 hPa,Steady"},

 {"town":"Beckwith Township, Ontario, Canada","lat":"+45.09482","long":"-76.11741","surl":"www.tamarackacres.com/taws/","fcode":"lgt","nets":"CAWN,COWN,CQWN,NEWN","conds":"night_clear.gif,Clear,5 C,86%,3 C,S,4 kmh,8,0.0 mm,1006.8 hPa,Steady"},

 {"town":"Hamilton, Ontario, Canada","lat":"43.234661","long":"-79.855080","surl":"www.hamiltonweatheronline.net/","fcode":"lgt","nets":"COWN","conds":"night_cloudy.gif,Overcast,4 C,69%,-1 C,SW,0 kmh,,0.0 mm,1018.0 hPa,Steady"},

 {"town":"Komoka, Ontario, Canada","lat":"42.9542444","long":"-81.4348861","surl":"www.komokaweather.com","fcode":"cam","nets":"COWN","conds":"night_partly_cloudy.gif,Partly Cloudy,2 C,70%,-2 C,N,0 kmh,6,0.0 mm,1019.9 hPa,Steady"},

 {"town":"Meaford, Ontario, Canada","lat":"44.519444","long":"-80.668333","surl":"www.waltersfalls.ca/","fcode":"wx","nets":"COWN","conds":"night_clear.gif,Clear,3 C,87%,1 C,WSW,4 kmh,5,1.5 mm,1016.0 hPa,Steady"},

 {"town":"Port McNicholl, Ontario, Canada","lat":"44.4598","long":"-79.4918","surl":"www3.sympatico.ca/mjharwood/trailer/trailer.html","fcode":"wx","nets":"COWN","conds":"night_clear.gif,Clear,6 C,88%,4 C,W,16 kmh,14,0.8 mm,1013.7 hPa,Steady"},

 {"town":"Stayner, Ontario, Canada","lat":"44.42143","long":"-80.09037","surl":"www.staynerweather.ca/","fcode":"wx","nets":"COWN","conds":"night_clear.gif,Clear,3 C,89%,2 C,WNW,15 kmh,14,0.0 mm,1015.7 hPa,Steady"},

 {"town":"Toronto, Ontario, Canada","lat":"43.656982","long":"-79.464949","surl":"www.celin-web.com/wdisplay/wxindex.php","fcode":"all","nets":"COWN","conds":"night_clear.gif,Clear,5 C,78%,1 C,SW,1 kmh,2,0.0 mm,1017.0 hPa,Steady"},

 {"town":"Unionville, Ontario, Canada","lat":"43.875507","long":"-79.312904","surl":"www.mackweather.com/","fcode":"all","nets":"COWN","conds":"night_partly_cloudy.gif,Partly Cloudy,4 C,76%,,WSW,0 kmh,,0.0 mm,1016.0 hPa,Rising"},

 {"town":"Vaughn, Ontario, Canada","lat":"43.789707904595026","long":"-79.61196541786194","surl":"www.vaughanweather.com/","fcode":"cam","nets":"COWN","conds":"night_partly_cloudy.gif,Partly Cloudy,3 C,88%,2 C,W,6 kmh,11,0.0 mm,1017.1 hPa,Rising Slowly"},

 {"town":"Wawa, Ontario, Canada","lat":"47.5625","long":"-84.4946","surl":"wawaweather.net/","fcode":"all","nets":"COWN,MWWN","conds":"night_partly_cloudy.gif,Partly Cloudy,-1 C,81%,-3 C,WNW,0 kmh,,0.0 mm,1010.6 hPa,Steady"},

 {"town":"Anjou, Quebec, Canada","lat":"+45.5928","long":"-73.5536","surl":"www.meteo-anjou.eco-energie-montreal.com","fcode":"wx","nets":"CQWN","conds":"Offline"},

 {"town":"Chambly, Quebec, Canada","lat":"+45.4454","long":"-73.2550","surl":"www.energie-richelieu.com/Document/meteo/","fcode":"wx","nets":"CQWN","conds":"Offline"},

 {"town":"Chicoutimi, Quebec, Canada","lat":"+48.4319","long":"-71.0231","surl":"www.meteochicoutimi.ca/","fcode":"wx","nets":"CQWN","conds":"night_cloudy.gif,Overcast,6 C,82%,3 C,SW,4 kmh,8,0.0 mm,1005.0 hPa,Steady"},

 {"town":"Delson, Quebec, Canada","lat":"+45.3745","long":"-73.5505","surl":"www.ve2rjp.ca/","fcode":"wx","nets":"CQWN","conds":"Offline"},

 {"town":"Fermont, Quebec, Canada","lat":"+52.80","long":"-67.09","surl":"www.denislaroche.com","fcode":"wx","nets":"CQWN","conds":"night_light_rain.gif,Showers,4 C,92%,2 C,SSE,20 kmh,11,1.4 mm,1000.7 hPa,Steady"},

 {"town":"Les Escoumins, Quebec, Canada","lat":"+48.32","long":"-69.41","surl":"cyberquebec.ca/emond61/","fcode":"wx","nets":"CQWN","conds":"Offline"},

 {"town":"Meteo Lanaudiere, Quebec, Canada","lat":"+46.183300","long":"-73.702202","surl":"www.meteolanaudiere.com/","fcode":"wx","nets":"CAWN,CQWN","conds":"night_clear.gif,Clear,5 C,89%,3 C,WSW,9 kmh,6,0.0 mm,1003.8 hPa,Steady"},

 {"town":"Orford, Quebec, Canada","lat":"+45.2400","long":"-72.1300","surl":"meteobowker.dyndns.org/","fcode":"wx","nets":"CQWN","conds":"Offline"},

 {"town":"Québec, Quebec, Canada","lat":"+46.8390","long":"-71.2360","surl":"www3.sympatico.ca/michel.fila/Current_Vantage.html","fcode":"wx","nets":"CQWN","conds":"Offline"},

 {"town":"Repentigny, Quebec, Canada","lat":"+45.7707","long":"-73.4669","surl":"www.reggphotos.com/cumulus/","fcode":"wx","nets":"CQWN","conds":"Offline"},

 {"town":"Saint-Colomban, Quebec, Canada","lat":"45.7705","long":"-74.0866","surl":"www.meteobasseslaurentides.com","fcode":"cam","nets":"CQWN","conds":"night_cloudy.gif,Overcast,3 C,95%,2 C,S,0 kmh,,0.0 mm,1006.9 hPa,Steady"},

 {"town":"Saint-Jean-sur-Richelieu, Quebec, Canada","lat":"+45.34855","long":"-73.30298","surl":"meteohautrichelieu.com/","fcode":"wx","nets":"CAWN,CQWN","conds":"night_clear.gif,Clear,7 C,85%,4 C,WSW,11 kmh,13,0.0 mm,1006.2 hPa,Steady"},

 {"town":"Saint-Léonard, Quebec, Canada","lat":"+45.5875","long":"-73.5880","surl":"pages.videotron.com/slmeteo","fcode":"wx","nets":"CQWN,NEWN","conds":"night_cloudy.gif,Mostly Cloudy,8 C,76%,4 C,WSW,17 kmh,22,0.0 mm,1008.6 hPa,Steady"},

 {"town":"Saint-Pascal de Kamouraska, Quebec, Canada","lat":"+47.5330","long":"-69.8030","surl":"meteostpascal.com","fcode":"wx","nets":"CQWN","conds":"night_clear.gif,Clear,10 C,96%,9 C,WSW,7 kmh,5,0.4 mm,1001.9 hPa,Steady"},

 {"town":"Sainte-Julie, Quebec, Canada","lat":"+45.56211","long":"-73.31841","surl":"www.wxva2sob.ca/","fcode":"all","nets":"CAWN,CQWN,NEWN","conds":"Offline"},

 {"town":"Saite-Helene-de-Breakeyville, Quebec, Canada","lat":"+46.68000","long":"-71.22000","surl":"www.meteobreakey.webou.net/","fcode":"cam","nets":"CAWN,CQWN","conds":"night_partly_cloudy.gif,Partly Cloudy,6 C,90%,5 C,W,10 kmh,8,0.0 mm,1004.4 hPa,Steady"},

 {"town":"St-Etienne-des-Grès, Quebec, Canada","lat":"+46.43","long":"-72.77","surl":"www.jeanrobertmarion.com/","fcode":"wx","nets":"CQWN","conds":"night_clear.gif,Clear,4 C,94%,3 C,W,5 kmh,5,0.0 mm,1004.5 hPa,Steady"},

 {"town":"Ville St-Laurent, Quebec, Canada","lat":"+45.5088","long":"-73.7342","surl":"www.celinium.com/","fcode":"wx","nets":"CQWN","conds":"night_cloudy.gif,Mostly Cloudy,7 C,82%,4 C,WSW,16 kmh,31,0.0 mm,1008.7 hPa,Steady"},

 {"town":"Battleford, Saskatchewan, Canada","lat":"52.72","long":"-108.43","surl":"saskweather.ca/farm","fcode":"wx","nets":"CSKWN","conds":"Offline"},

 {"town":"Carlyle, Saskatchewan, Canada","lat":"49.6321","long":"-102.2715","surl":"www.williamsonweather.com","fcode":"lgt","nets":"CSKWN","conds":"night_clear.gif,Clear,-0 C,90%,-2 C,NNW,4 kmh,5,2.1 mm,1012.8 hPa,Rising Rapidly"},

 {"town":"Regina, Saskatchewan, Canada","lat":"50.499321","long":"-104.678902","surl":"nwrweather.com/","fcode":"all","nets":"CSKWN","conds":"night_cloudy.gif,Overcast,0 C,89%,-1 C,NW,7 kmh,5,0.8 mm,1025.1 hPa,Rising Slowly"},

 {"town":"Wilkie, Saskatchewan, Canada","lat":"52.542","long":"-108.643","surl":"www.barkerfarms.net","fcode":"lgt","nets":"CSKWN","conds":"night_cloudy.gif,Overcast,-1 C,78%,-5 C,NNW,8 kmh,,4.8 mm,1026.9 hPa,Rising Rapidly"},

 {"town":"Whitehorse, Yukon Territories, Canada","lat":"60.4972","long":"-135.1163","surl":"meteowhitehorse.ca","fcode":"wx","nets":"WCWN","conds":"day_snow.gif,Snow,0 C,85%,-2 C,NW,0 kmh,,0.0 mm,1020.5 hPa,Steady"},

 {"town":"Antwerpen-Ekeren, Belgium, Europe","lat":"51.2809101","long":"4.4202713","surl":"www.akker.be/","fcode":"cam","nets":"BNLWN","conds":"Offline"},

 {"town":"Arendonk, Belgium, Europe","lat":"51.334423","long":"5.095951","surl":"www.rene-online.be/","fcode":"wx","nets":"BNLWN","conds":"night_partly_cloudy.gif,Partly Cloudy,4 C,94%,3 C,N,0 kmh,,0.0 mm,1012.1 hPa,Steady"},

 {"town":"Beernem, Belgium, Europe","lat":"51.1655","long":"3.3116","surl":"www.meteobeernem.be/","fcode":"wx","nets":"BNLWN","conds":"night_partly_cloudy.gif,Scattered Clouds,4 C,97%,4 C,,0 kmh,,0.0 mm,1010.6 hPa,Falling Slowly"},

 {"town":"Beerse, Belgium, Europe","lat":"51.330685","long":"4.802318","surl":"www.weerstationkempen.be/","fcode":"cam","nets":"BNLWN","conds":"night_clear.gif,Clear,3 C,91%,2 C,E,1 kmh,2,0.0 mm,1009.8 hPa,Steady"},

 {"town":"Brugge, Belgium, Europe","lat":"51.1990433","long":"3.1817973","surl":"www.weathercam.be/","fcode":"wx","nets":"BNLWN","conds":"Offline"},

 {"town":"Duffel, Belgium, Europe","lat":"51.077131","long":"4.490310","surl":"www.weerstationduffel.be/","fcode":"all","nets":"BNLWN","conds":"night_partly_cloudy.gif,Partly Cloudy,5 C,93%,4 C,ESE,0 kmh,,0.0 mm,1011.7 hPa,Steady"},

 {"town":"Godarville, Belgium, Europe","lat":"50.494137","long":"4.283324","surl":"godarville-meteo.be/","fcode":"cam","nets":"BNLWN","conds":"Offline"},

 {"town":"Heist aan Zee, Belgium, Europe","lat":"51.33469","long":"3.24835","surl":"www.weerstationheist.be/","fcode":"wx","nets":"BNLWN","conds":"day_partly_cloudy.gif,Partly Cloudy,5 C,84%,3 C,ESE,6 kmh,9,0.0 mm,1009.0 hPa,Steady"},

 {"town":"Herent, Belgium, Europe","lat":"50.895278","long":"4.69741","surl":"www.weerstation-herent.be/","fcode":"wx","nets":"BNLWN","conds":"night_partly_cloudy.gif,Partly Cloudy,4 C,94%,3 C,ENE,0 kmh,,0.0 mm,1012.2 hPa,Steady"},

 {"town":"Kampenhout, Belgium, Europe","lat":"50.92874","long":"4.53334","surl":"www.joske-online.be/","fcode":"wx","nets":"BNLWN","conds":"night_partly_cloudy.gif,Partly Cloudy,4 C,94%,3 C,E,0 kmh,,0.0 mm,1010.7 hPa,Steady"},

 {"town":"Lanklaar, Belgium, Europe","lat":"51.0122","long":"5.6485","surl":"www.meteolanklaar.be/","fcode":"cam","nets":"BNLWN","conds":"night_partly_cloudy.gif,Partly Cloudy,2 C,99%,2 C,SE,0 kmh,,0.0 mm,1012.8 hPa,Steady"},

 {"town":"Lincent, Belgium, Europe","lat":"50.710278","long":"5.026389","surl":"www.bel1.net/meteo/","fcode":"wx","nets":"BNLWN","conds":"night_rain.gif,Rain,0 C,0%,,S,2 kmh,1,0.0 mm,1014.4 hPa,Steady"},

 {"town":"Lobbes, Belgium, Europe","lat":"50.351","long":"4.266","surl":"www.lobbes.net/meteo/","fcode":"lgt","nets":"BNLWN","conds":"night_clear.gif,Clear,6 C,94%,5 C,ENE,0 kmh,,0.4 mm,1010.3 hPa,Falling Slowly"},

 {"town":"Moerzeke, Belgium, Europe","lat":"51.074353","long":"4.164181","surl":"www.meteomoes.be/","fcode":"all","nets":"BNLWN","conds":"night_cloudy.gif,Mostly Cloudy,5 C,92%,4 C,E,1 kmh,5,0.0 mm,1010.8 hPa,Falling Slowly"},

 {"town":"Nieuwrode-Holsbeek, Belgium, Europe","lat":"50.942678","long":"4.810971","surl":"www.jvanorshoven.net/weather/wxindex.php","fcode":"cam","nets":"BNLWN","conds":"Offline"},

 {"town":"Overijse, Belgium, Europe","lat":"50.774137","long":"4.538421","surl":"www.weerstationoverijse.be/","fcode":"cam","nets":"BNLWN","conds":"night_clear.gif,Clear,3 C,89%,1 C,ENE,0 kmh,,0.0 mm,1010.2 hPa,Steady"},

 {"town":"Ransberg, Belgium, Europe","lat":"50.874167","long":"5.039444","surl":"home.scarlet.be/weerstation.ransberg/","fcode":"cam","nets":"BNLWN","conds":"Offline"},

 {"town":"Tollembeek, Belgium, Europe","lat":"50.74040","long":"3.99477","surl":"www.meteotollembeek.be/","fcode":"cam","nets":"BNLWN","conds":"night_partly_cloudy.gif,Scattered Clouds,6 C,92%,4 C,ENE,2 kmh,,0.0 mm,1010.7 hPa,Falling Slowly"},

 {"town":"Vorselaar, Belgium, Europe","lat":"51.122226","long":"4.453807","surl":"weerstation-vorselaar.tk/","fcode":"wx","nets":"BNLWN","conds":"night_clear.gif,Clear,5 C,94%,4 C,ESE,0 kmh,,0.0 mm,1011.0 hPa,Steady"},

 {"town":"Wilsele, Belgium, Europe","lat":"50.89518","long":"4.69741","surl":"www.weerstation-wilsele.be/","fcode":"wx","nets":"BNLWN","conds":"night_light_rain.gif,Showers,5 C,91%,3 C,S,0 kmh,,0.0 mm,1010.7 hPa,Steady"},

 {"town":"Wingene, Belgium, Europe","lat":"51.0433","long":"3.2608","surl":"www.leestje.net/","fcode":"wx","nets":"BNLWN","conds":"night_partly_cloudy.gif,Scattered Clouds,6 C,96%,5 C,ENE,0 kmh,,0.0 mm,1009.4 hPa,Falling Slowly"},

 {"town":"Bachinovo(2700), Blagoevgrad, Bulgaria, Europe","lat":"42.03357200058841","long":"23.130651712417603","surl":"www.vremeto.org/bachinovo/station/wxindex.php","fcode":"wx","nets":"BGWN","conds":"Offline"},

 {"town":"Blagoevgrad(2700), Blagoevgrad, Bulgaria, Europe","lat":"42.0182778971963","long":"23.077168464660644","surl":"solar.swu.bg/solar/station/wxindex.php","fcode":"wx","nets":"BGWN","conds":"day_clear.gif,Dry,5 C,87%,3 C,N,0 kmh,,0.0 mm,1013.1 hPa,Steady"},

 {"town":"Kovachevitsa(2969), Blagoevgrad, Bulgaria, Europe","lat":"41.684813","long":"23.827064","surl":"www.pss.bg/weather_kovach.php","fcode":"cam","nets":"BGWN","conds":"day_clear.gif,Dry,14 C,56%,5 C,E,0 kmh,,0.0 mm,0.0 hPa,Steady"},

 {"town":"Petrich (2850), Blagoevgrad, Bulgaria, Europe","lat":"41.401012","long":"23.208736","surl":"weatherpetrich.com","fcode":"cam","nets":"BGWN","conds":"Offline"},

 {"town":"Predela (2760), Blagoevgrad, Bulgaria, Europe","lat":"41.87710109","long":"23.36479950","surl":"www.stamb.net/biohotel/station/index.php","fcode":"cam","nets":"BGWN","conds":"Offline"},

 {"town":"Sandanski(2800), Blagoevgrad, Bulgaria, Europe","lat":"41.57265973134329","long":"23.279728889465332","surl":"www.vremeto.org/sandanski/","fcode":"wx","nets":"BGWN","conds":"Offline"},

 {"town":"Burgas(8000), Burgas, Bulgaria, Europe","lat":"42.50551526821832","long":"27.472686767578125","surl":"www.asen.iliev.name/weather/","fcode":"wx","nets":"BGWN","conds":"day_clear.gif,Sunny,12 C,81%,9 C,WNW,11 kmh,80,0.0 mm,1011.8 hPa,Steady"},

 {"town":"Pomorie(8200), Burgas, Bulgaria, Europe","lat":"42.5655664263403","long":"27.630958557128906","surl":"www.vremeto.org/pomorie/station/wxindex.php","fcode":"wx","nets":"BGWN","conds":"day_clear.gif,Dry,14 C,79%,11 C,SW,4 kmh,4,0.0 mm,1010.5 hPa,Steady"},

 {"town":"Balchik (9600), Dobrich, Bulgaria, Europe","lat":"43.409724097994136","long":"28.16319465637207","surl":"www.stamb.net/balchik/station/index.php","fcode":"cam","nets":"BGWN","conds":"Offline"},

 {"town":"Gabrovo (5300), Gabrovo, Bulgaria, Europe","lat":"42.87111111","long":"25.31527777","surl":" gabrovo-weather.org","fcode":"wx","nets":"BGWN","conds":"Offline"},

 {"town":"Uzana (5301), Gabrovo, Bulgaria, Europe","lat":"42.760559","long":"25.232985","surl":"uzana.gabrovo.bg/weather/station/index.php","fcode":"cam","nets":"BGWN","conds":"night_clear.gif,Clear,14 C,60%,6 C,SSW,3 kmh,3,0.0 mm,1019.9 hPa,Steady"},

 {"town":"Dimitrovgrad(6400), Haskovo, Bulgaria, Europe","lat":"42.05018492520078","long":"25.591278076171875","surl":"www.vremeto.org/dimitrovgrad/station/index.php","fcode":"wx","nets":"BGWN","conds":"Offline"},

 {"town":"Kustendil(2500), Kiystendil, Bulgaria, Europe","lat":"42.27237099565928","long":"22.675137519836426","surl":"www.vremeto.org/kustendil/","fcode":"wx","nets":"BGWN","conds":"Offline"},

 {"town":"Pionerska Hut(2645), Kiystendil, Bulgaria, Europe","lat":"42.24026600530224","long":"23.326554894447327","surl":"www.rilskiezera.bg/cam_ds/station/wxindex.php","fcode":"cam","nets":"BGWN","conds":"Offline"},

 {"town":"Rilskiezera(2645), Kiystendil, Bulgaria, Europe","lat":"42.220555555556","long":"23.3225","surl":"www.rilskiezera.bg/meteo/station/wxindex.php","fcode":"cam","nets":"BGWN","conds":"Offline"},

 {"town":"Lom(3600), Lom, Bulgaria, Europe","lat":"43.8236","long":"23.2309","surl":"www.vremeto.org/lom/station/index.php","fcode":"wx","nets":"BGWN","conds":"day_clear.gif,Dry,8 C,61%,1 C,SW,3 kmh,3,0.0 mm,1004.3 hPa,Rising Slowly"},

 {"town":"Beklemeto (5364), Lovech, Bulgaria, Europe","lat":"42.791228","long":"24.626369","surl":"www.hotelsima.com/meteo/station/index.php","fcode":"cam","nets":"BGWN","conds":"Offline"},

 {"town":"Strelcha(4530), Pazardzhik, Bulgaria, Europe","lat":"42.50623502219783","long":"24.321563243865967","surl":"www.vremeto.org/strelcha/station/index.php","fcode":"wx","nets":"BGWN","conds":"day_clear.gif,Dry,8 C,62%,1 C,NW,3 kmh,,0.0 mm,1012.9 hPa,Rising Slowly"},

 {"town":"Breznik(2360), Pernik, Bulgaria, Europe","lat":"42.73984992518802","long":"22.909133434295654","surl":"www.vremeto.org/breznik/station/index.php","fcode":"wx","nets":"BGWN","conds":"day_clear.gif,Dry,3 C,87%,1 C,NE,1 kmh,2,0.0 mm,1016.0 hPa,Steady"},

 {"town":"Tran(2460), Pernik, Bulgaria, Europe","lat":"42.834727793331375","long":"22.650911808013916","surl":"www.stamb.net/tran/station/index.php","fcode":"wx","nets":"BGWN","conds":"Offline"},

 {"town":"Cherven Bryag(5980), Pleven, Bulgaria, Europe","lat":"43.2812","long":"24.0895","surl":"www.meteo-rb.free.bg/","fcode":"wx","nets":"BGWN","conds":"Offline"},

 {"town":"Gorni Dabnik (5880), Pleven, Bulgaria, Europe","lat":"43.355453","long":"24.334095","surl":"www.stamb.net/gdabnik/station/index.php","fcode":"cam","nets":"BGWN","conds":"Offline"},

 {"town":"Dermenka (4330), Plovdiv, Bulgaria, Europe","lat":"42.73020","long":"24.68089","surl":"www.stamb.net/dermenka/station/index.php","fcode":"cam","nets":"BGWN","conds":"Offline"},

 {"town":"Dobrila Hut (4330), Plovdiv, Bulgaria, Europe","lat":"42.71109","long":"24.76102","surl":"www.dobrila.eu/meteo/station/index.php","fcode":"cam","nets":"BGWN","conds":"day_clear.gif,Dry,13 C,50%,3 C,SW,0 kmh,,0.0 mm,1011.5 hPa,Steady"},

 {"town":"Forestnook hut(4258), Plovdiv, Bulgaria, Europe","lat":"41.994456721579816","long":"24.760115146636963","surl":"www.stamb.net/forestnook/station/index.php","fcode":"cam","nets":"BGWN","conds":"Offline"},

 {"town":"Hotel Zdravetz (4022), Plovdiv, Bulgaria, Europe","lat":"41.99674","long":"24.68797","surl":"hotelzdravetz.com/wdisplay/station/index.php","fcode":"cam","nets":"BGWN","conds":"day_clear.gif,Dry,9 C,50%,-1 C,SW,0 kmh,,0.0 mm,1006.6 hPa,Steady"},

 {"town":"Plovdiv(4000), Plovdiv, Bulgaria, Europe","lat":"42.152101809318765","long":"24.744869470596313","surl":"www.vremeto.org/plovdiv/station/index.php","fcode":"wx","nets":"BGWN","conds":"day_clear.gif,Dry,10 C,66%,4 C,WNW,11 kmh,11,0.0 mm,1020.9 hPa,Steady"},

 {"town":"Sopot(4330), Plovdiv, Bulgaria, Europe","lat":"42.65272582518512","long":"24.757883548736572","surl":"www.vremeto.org/sopot/station/wxindex.php","fcode":"wx","nets":"BGWN","conds":"day_clear.gif,Dry,10 C,42%,-2 C,SSW,0 kmh,,0.0 mm,1012.9 hPa,Steady"},

 {"town":"Stambolijski (4210), Plovdiv, Bulgaria, Europe","lat":"42.12878418","long":"24.53075409","surl":"www.stamb.net/weather/station/index.php","fcode":"all","nets":"BGWN","conds":"Offline"},

 {"town":"Zdravetz Hut(4022), Plovdiv, Bulgaria, Europe","lat":"42.007659920733644","long":"24.694454669952392","surl":"www.vremeto.org/zdravetz/station/index.php","fcode":"cam","nets":"BGWN","conds":"day_clear.gif,Dry,8 C,52%,-1 C,W,1 kmh,2,0.0 mm,1015.5 hPa,Steady"},

 {"town":"Razgrad(7200), Razgrad, Bulgaria, Europe","lat":"43.53112699069791","long":"26.52271270751953","surl":"www.vremeto.org/razgrad/station/wxindex.php","fcode":"wx","nets":"BGWN","conds":"day_clear.gif,Dry,25 C,39%,10 C,WNW,1 kmh,8,0.0 mm,1015.6 hPa,Steady"},

 {"town":"Jeravna(8988), Sliven, Bulgaria, Europe","lat":"42.83357910610006","long":"26.459219455718994","surl":"www.stamb.net/jeravna/station/index.php","fcode":"wx","nets":"BGWN","conds":"Offline"},

 {"town":"Devin (4800), Smolyan, Bulgaria, Europe","lat":"41.744804","long":"24.398693","surl":"www.stamb.net/devin/station/index.php","fcode":"cam","nets":"BGWN","conds":"day_clear.gif,Dry,7 C,66%,1 C,ENE,0 kmh,,0.0 mm,1012.4 hPa,Steady"},

 {"town":"Gela (4838), Smolyan, Bulgaria, Europe","lat":"41.648581","long":"24.56755","surl":"www.hotelgela.com/weather/station/index.php","fcode":"cam","nets":"BGWN","conds":"day_clear.gif,Dry,14 C,78%,10 C,N,0 kmh,,0.0 mm,1011.3 hPa,Steady"},

 {"town":"Trigrad (4835), Smolyan, Bulgaria, Europe","lat":"41.58370311","long":"24.39516305","surl":"www.stamb.net/trigrad/station/index.php","fcode":"wx","nets":"BGWN","conds":"Offline"},

 {"town":"Zlatograd(4980), Smolyan, Bulgaria, Europe","lat":"41.380431275261735","long":"25.093095302581787","surl":"weather.zlatograd.com","fcode":"cam","nets":"BGWN","conds":"day_clear.gif,Clear,9 C,83%,,,0 kmh,,0.0 mm,1012.5 hPa,--"},

 {"town":"Aleko Hut (1743), Sofia, Bulgaria, Europe","lat":"42.58256884","long":"23.29209923","surl":"www.motensport.com/bg/weather-station","fcode":"cam","nets":"BGWN","conds":"Offline"},

 {"town":"Bankya(1320), Sofia, Bulgaria, Europe","lat":"42.71511056378384","long":"23.135533332824707","surl":"www.vremeto.org/bankya/index.html","fcode":"wx","nets":"BGWN","conds":"Offline"},

 {"town":"Druzba Sofia(1592), Sofia, Bulgaria, Europe","lat":"42.66110526","long":"23.39909791","surl":"www.stamb.net/sofia/station/index.php","fcode":"wx","nets":"BGWN","conds":"Offline"},

 {"town":"Ihtiman (2050), Sofia, Bulgaria, Europe","lat":"42.432777","long":"23.816944","surl":"ihtiman-meteo.com/index.php","fcode":"cam","nets":"BGWN","conds":"day_clear.gif,Dry,2 C,73%,-2 C,NNE,0 kmh,,0.0 mm,1012.0 hPa,Steady"},

 {"town":"Maliovitsa (2020), Sofia, Bulgaria, Europe","lat":"42.189125","long":"23.374507","surl":"maliovitsahut.com/Meteo/station/index.php","fcode":"cam","nets":"BGWN","conds":"Offline"},

 {"town":"Ofelia (1741), Sofia, Bulgaria, Europe","lat":"42.59789","long":"23.23534","surl":"www.pss.bg/weather_ofelia.php","fcode":"cam","nets":"BGWN","conds":"Offline"},

 {"town":"Sofia(1113), Sofia, Bulgaria, Europe","lat":"42.67644098290568","long":"23.36919665336609","surl":"www.vremeto.org/niggg/station/index.php","fcode":"wx","nets":"BGWN","conds":"Offline"},

 {"town":"Sofia(1612), Sofia, Bulgaria, Europe","lat":"42.688611111111","long":"23.307777777778","surl":"www.stamb.net/krasnoselo/station/index.php","fcode":"wx","nets":"BGWN","conds":"Offline"},

 {"town":"Vetrovala (1742), Sofia, Bulgaria, Europe","lat":"42.60251","long":"23.24102","surl":"www.pss.bg/weather_vetrovala.php","fcode":"cam","nets":"BGWN","conds":"day_rain.gif,Rain,3 C,74%,-1 C,SE,0 kmh,,0.0 mm,1021.8 hPa,Steady"},

 {"town":"St. Zagora(6000), St. Zagora, Bulgaria, Europe","lat":"42.40493728219203","long":"25.635770559310913","surl":"www.stamb.net/wrbc/station/index.php","fcode":"wx","nets":"BGWN","conds":"day_clear.gif,Dry,10 C,69%,5 C,S,0 kmh,,0.0 mm,0.0 hPa,Steady"},

 {"town":"Alvanovo(7752), Targovishte, Bulgaria, Europe","lat":"43.297385808702735","long":"26.66905403137207","surl":"www.stamb.net/alvanovo/station/index.php","fcode":"cam","nets":"BGWN","conds":"day_clear.gif,Dry,4 C,81%,1 C,W,0 kmh,,0.0 mm,1012.6 hPa,Steady"},

 {"town":"Targovishte(7700), Targovishte, Bulgaria, Europe","lat":"43.24845375357126","long":"26.56498432159424","surl":"www.stamb.net/targovishte/station/index.php","fcode":"cam","nets":"BGWN","conds":"Offline"},

 {"town":"L. Monastery(5140), V.Tarnovo, Bulgaria, Europe","lat":"43.095","long":"25.70775","surl":"www.vremeto.org/vt-paragliding/station/index.php","fcode":"wx","nets":"BGWN","conds":"day_clear.gif,Dry,14 C,40%,1 C,WSW,3 kmh,4,0.0 mm,1011.0 hPa,Steady"},

 {"town":"Lyaskovets (5140), V.Tarnovo, Bulgaria, Europe","lat":"43.097223","long":"25.720711","surl":"lyaskovets.net/weather/station/index.php","fcode":"wx","nets":"BGWN","conds":"night_clear.gif,Clear,15 C,44%,2 C,WSW,3 kmh,3,0.0 mm,1012.6 hPa,Steady"},

 {"town":"Maslarevo(5198), V.Tarnovo, Bulgaria, Europe","lat":"43.418075","long":"25.471997","surl":"www.vremeto.org/maslarevo/index.htm","fcode":"wx","nets":"BGWN","conds":"day_clear.gif,Clear,6 C,87%,4 C,---,0 kmh,1,0.0 mm,1017.4 hPa,Steady"},

 {"town":"Asparuhovo(9003), Varna, Bulgaria, Europe","lat":"43.182209076864176","long":"27.888981699943542","surl":"www.nikisurfsport.com/weather/station/index.php","fcode":"cam","nets":"BGWN","conds":"Offline"},

 {"town":"Varna(9002), Varna, Bulgaria, Europe","lat":"43.2114258","long":"27.9205837","surl":"weatherstation.telecoms.bg/","fcode":"wx","nets":"BGWN","conds":"fog.gif,patches fog,14 C,72%,9 C,WNW,0 kmh,7,0.0 mm,1002.0 hPa,Steady"},

 {"town":"Kom Hut(3500), Vratsa, Bulgaria, Europe","lat":"43.189167","long":"23.080556","surl":"www.pss.bg/weather_kom.php","fcode":"cam","nets":"BGWN","conds":"Offline"},

 {"town":"Litakovo(2164), Vratsa, Bulgaria, Europe","lat":"42.9444861056509","long":"23.67382049560547","surl":"www.vremeto.org/litakovo/index.html","fcode":"cam","nets":"BGWN","conds":"day_clear.gif,Clear,3 C,84%,1 C,ENE,0 kmh,,0.0 mm,1014.7 hPa,--"},

 {"town":"Elhovo (8700), Yambol, Bulgaria, Europe","lat":"42.165000","long":"26.567222","surl":"www.stamb.net/elhovo/station/index.php","fcode":"cam","nets":"BGWN","conds":"Offline"},

 {"town":"Polyana(8654), Yambol, Bulgaria, Europe","lat":"42.305769","long":"26.824781","surl":"www.stamb.net/polyana/station/index.php","fcode":"wx","nets":"BGWN","conds":"day_clear.gif,Dry,12 C,77%,8 C,NW,0 kmh,,0.0 mm,984.8 hPa,Steady"},

 {"town":"Razdel (8747), Yambol, Bulgaria, Europe","lat":"42.079647","long":"26.654377","surl":"www.stamb.net/razdel/station/index.php","fcode":"cam","nets":"BGWN","conds":"day_clear.gif,Dry,10 C,85%,7 C,SE,0 kmh,,0.0 mm,1015.2 hPa,Steady"},

 {"town":"Arløse, Denmark, Europe","lat":"55.2758","long":"11.5536","surl":"vejret.arloese.dk","fcode":"cam","nets":"Nordic","conds":"windyrain.gif,Windy/rain,6 C,97%,6 C,NNW,0.6 m/s,0.0,7.7 mm,1012.5 hPa,Steady"},

 {"town":"Bornholm, Denmark, Europe","lat":"55.096388","long":"14.85","surl":"www.bornholmervejr.dk/","fcode":"cam","nets":"Nordic","conds":"night_clear.gif,Clear,3 C,93%,2 C,NNE,0.0 m/s,0.0,0.0 mm,1009.5 hPa,Rising"},

 {"town":"Bønnerup Lystbådehavn, Denmark, Europe","lat":"56.5336","long":"10.7130","surl":"vejret.boennerup-lbh.dk","fcode":"wx","nets":"Nordic","conds":"night_clear.gif,Clear,1 C,94%,,SSW,2.0 m/s,0.0,0.0 mm,1013.0 hPa,Steady"},

 {"town":"Copenhagen, Hareskovby, Denmark, Europe","lat":"55.76654","long":"12.39793","surl":"www.hareskovvejr.dk/","fcode":"cam","nets":"Nordic","conds":",,2 C,86%,,--,0.0 m/s,0.0,0.0 mm,1012.0 hPa,Steady"},

 {"town":"Fensmark, Denmark, Europe","lat":"55.27305","long":"11.811","surl":"www.fensmark-vejret.dk/","fcode":"cam","nets":"Nordic","conds":"night_clear.gif,Clear,5 C,95%,4 C,WNW,0.7 m/s,0.0,0.0 mm,1006.9 hPa,Steady"},

 {"town":"Frejlev, Denmark, Europe","lat":"54.6986","long":"11.7800","surl":"www.vossjacobsen.dk/vejr","fcode":"wx","nets":"Nordic","conds":"night_clear.gif,Clear,7 C,99%,7 C,N,0.0 m/s,0.0,0.0 mm,1015.7 hPa,Steady"},

 {"town":"Herlev, Denmark, Europe","lat":"55.73589","long":"12.40787","surl":"www.herlev-vejret.dk/","fcode":"cam","nets":"Nordic","conds":"windy.gif,Windy,1 C,94%,,N,0.0 m/s,0.0,0.0 mm,1012.4 hPa,Steady"},

 {"town":"Hornum, Denmark, Europe","lat":"56.843888","long":"9.4230555","surl":"www.evagaard-hornumvejr.dk","fcode":"wx","nets":"Nordic","conds":"night_clear.gif,Clear,6 C,97%,6 C,WNW,0.0 m/s,0.0,0.0 mm,1009.7 hPa,Steady"},

 {"town":"Horsens, Denmark, Europe","lat":"55.8311","long":"9.8055","surl":"www.vejretihorsens.dk","fcode":"wx","nets":"Nordic","conds":"night_clear.gif,Clear,8 C,34%,-7 C,SSW,0.6 m/s,0.0,0.0 mm,1011.8 hPa,Steady"},

 {"town":"Høje-Taastrup, Denmark, Europe","lat":"55.6666","long":"12.2833","surl":"www.hallandsparken.dk/","fcode":"wx","nets":"Nordic","conds":"night_clear.gif,Clear,2 C,87%,,NW,0.0 m/s,0.0,0.4 mm,1012.1 hPa,Steady"},

 {"town":"Højer, Denmark, Europe","lat":"54.969","long":"8.691","surl":"www.hojervejr.dk","fcode":"cam","nets":"Nordic","conds":",,9 C,97%,8 C,W,0.0 m/s,0.0,4.4 mm,1013.4 hPa,Steady"},

 {"town":"Ikast, Denmark, Europe","lat":"56.1358","long":"9.1725","surl":"www.svanekevej.dk/","fcode":"wx","nets":"Nordic","conds":"night_clear.gif,Clear,5 C,98%,4 C,W,0.0 m/s,0.0,0.0 mm,1014.0 hPa,Steady"},

 {"town":"Jægerspris, Denmark, Europe","lat":"55.848056","long":"11.98","surl":"www.oz1iep.dk/vejr/","fcode":"wx","nets":"Nordic","conds":"night_clear.gif,Clear,4 C,93%,3 C,NW,0.8 m/s,0.0,0.0 mm,1010.2 hPa,Steady"},

 {"town":"Kr.Sonnerup, Denmark, Europe","lat":"55.6493","long":"11.8132","surl":"www.vejr3.dk/","fcode":"cam","nets":"Nordic","conds":"night_clear.gif,Clear,4 C,94%,3 C,WSW,0.5 m/s,0.0,0.0 mm,1011.8 hPa,Steady"},

 {"town":"Kvistgård, Denmark, Europe","lat":"55.9917","long":"12.4905","surl":"www.kvistgaardvejr.dk","fcode":"wx","nets":"Nordic","conds":"mist.gif,Mist,2 C,95%,1 C,WNW,0.4 m/s,0.0,0.2 mm,1011.8 hPa,Steady"},

 {"town":"Lake Arresoe, Denmark, Europe","lat":"56.016424","long":"12.08729","surl":"www.arresoe-weather.dk/","fcode":"cam","nets":"Nordic","conds":"mist.gif,Mist,3 C,97%,2 C,NNW,0.0 m/s,0.0,0.0 mm,1011.5 hPa,Steady"},

 {"town":"Langesø, Denmark, Europe","lat":"56.035278","long":"12.43","surl":"www.cpvejr.dk/","fcode":"all","nets":"Nordic","conds":"night_clear.gif,Clear,2 C,95%,1 C,WNW,0.0 m/s,0.0,0.0 mm,1011.9 hPa,Steady"},

 {"town":"Lemvig, Denmark, Europe","lat":"56.544","long":"8.271","surl":"www.vestvejr.dk/vejret/Current_Monitor.htm","fcode":"cam","nets":"Nordic","conds":",,8 C,88%,6 C,WNW,1.3 m/s,0.0,0.0 mm,1010.0 hPa,Steady"},

 {"town":"Middelfart, Denmark, Europe","lat":"55.4964485","long":"9.75","surl":"www.jahla.dk/","fcode":"wx","nets":"Nordic","conds":",,7 C,94%,6 C,SW,0.0 m/s,0.0,0.0 mm,1013.1 hPa,N/a"},

 {"town":"Nakskov, Denmark, Europe","lat":"54.8307","long":"11.1490","surl":"www.webvejr.dk/","fcode":"cam","nets":"Nordic","conds":",,8 C,95%,8 C,NNW,0.0 m/s,0.0,0.0 mm,1012.4 hPa,Rising"},

 {"town":"Nykøbing Falster, Denmark, Europe","lat":"54.7724","long":"11.8716","surl":"www.sydhavsvejr.dk","fcode":"cam","nets":"Nordic","conds":"windyrain.gif,Windy/rain,8 C,92%,7 C,W,0.6 m/s,0.0,0.3 mm,1013.3 hPa,Steady"},

 {"town":"Roskilde, Himmelev, Denmark, Europe","lat":"55.3971","long":"12.6239","surl":"www.ved-kirken.dk/Vejr","fcode":"wx","nets":"Nordic","conds":"night_clear.gif,Clear,4 C,92%,3 C,WNW,0.9 m/s,0.0,0.0 mm,1010.1 hPa,Steady"},

 {"town":"Silkeborg, Denmark, Europe","lat":"56.1827","long":"9.5072","surl":"www.silkeborg-vejret.dk/","fcode":"all","nets":"Nordic","conds":"night_clear.gif,Clear,5 C,95%,4 C,W,0.1 m/s,0.0,0.0 mm,1010.8 hPa,Steady"},

 {"town":"Smørum, Denmark, Europe","lat":"55.7410","long":"12.311","surl":"frihjul.dk/","fcode":"wx","nets":"Nordic","conds":",,2 C,97%,2 C,WNW,0.0 m/s,0.0,0.0 mm,1012.1 hPa,N/a"},

 {"town":"Starreklinte, Denmark, Europe","lat":"55.750833","long":"11.37","surl":"www.kastext.com/","fcode":"cam","nets":"Nordic","conds":"night_partly_cloudy.gif,Partly cloudy,7 C,95%,7 C,NNW,1.4 m/s,0.0,4.2 mm,1010.6 hPa,Steady"},

 {"town":"Stenløse, Denmark, Europe","lat":"55.7718","long":"12.2046","surl":"www.wx3660.dk/","fcode":"wx","nets":"Nordic","conds":"night_partly_cloudy.gif,Partly cloudy,2 C,96%,1 C,E,0.0 m/s,0.0,0.0 mm,1011.8 hPa,Steady"},

 {"town":"Strøby, Denmark, Europe","lat":"55.388611","long":"12.27","surl":"www.janning.dk/","fcode":"wx","nets":"Nordic","conds":"mist.gif,Mist,3 C,92%,1 C,SW,0.0 m/s,0.0,0.0 mm,1010.1 hPa,Steady"},

 {"town":"Svendborg, Denmark, Europe","lat":"55.058920","long":"10.59","surl":"www.b-n-s.dk/","fcode":"cam","nets":"Nordic","conds":"mist.gif,Mist,5 C,100%,5 C,W,0.0 m/s,0.0,0.0 mm,1012.5 hPa,Steady"},

 {"town":"Søllested. Lolland, Denmark, Europe","lat":"54.8081","long":"11.2694","surl":"www.zejan.dk","fcode":"cam","nets":"Nordic","conds":"night_partly_cloudy.gif,Partly cloudy,8 C,96%,7 C,W,0.0 m/s,0.0,0.0 mm,1013.6 hPa,Steady"},

 {"town":"Tarm, Denmark, Europe","lat":"55.8992","long":"8.51646","surl":"www.jasminvejr.dk/","fcode":"cam","nets":"Nordic","conds":"night_clear.gif,Clear,6 C,95%,6 C,SSE,0.4 m/s,0.0,0.0 mm,1010.6 hPa,Steady"},

 {"town":"Tistrup, Denmark, Europe","lat":"55.71514","long":"8.6106","surl":"www.tistrup.nu/","fcode":"wx","nets":"Nordic","conds":"night_clear.gif,Clear,9 C,100%,9 C,SW,2.4 m/s,0.0,0.8 mm,1012.4 hPa,Steady"},

 {"town":"Toustrup Mark, Denmark, Europe","lat":"56.188333","long":"9.854","surl":"fdaa.dk/vejr/tv2/station.htm","fcode":"wx","nets":"Nordic","conds":",,5 C,33%,-10 C,NW,0.0 m/s,0.0,0.0 mm,1011.9 hPa,Steady"},

 {"town":"Ullerslev, Denmark, Europe","lat":"55.366389","long":"10.65","surl":"www.ullerslev-radiotv.dk/vejret.html","fcode":"cam","nets":"Nordic","conds":"night_partly_cloudy.gif,Mostly clear,6 C,92%,4 C,WSW,0.0 m/s,0.0,0.0 mm,1013.1 hPa,Steady"},

 {"town":"Ulstrup, Hvorslev, Denmark, Europe","lat":"56.3667","long":"9.7663","surl":"www.wunderground.com/q/zmw:00000.9.06069?MR=1","fcode":"wx","nets":"Nordic,Nordic,Nordic","conds":"mist.gif,Mist,5 C,95%,4 C,WNW,0.0 m/s,0.0,0.0 mm,1012.1 hPa,N/a"},

 {"town":"Vindeby, Denmark, Europe","lat":"55.044339","long":"10.615643","surl":"vindeby.dk","fcode":"wx","nets":"Nordic","conds":"windy.gif,Windy,7 C,97%,7 C,WSW,0.2 m/s,0.0,0.0 mm,1013.4 hPa,Steady"},

 {"town":"Voer, Denmark, Europe","lat":"56.516667","long":"10.335","surl":"www.voervejr.dk/","fcode":"wx","nets":"Nordic","conds":"mist.gif,Mist,6 C,82%,4 C,WSW,0.6 m/s,0.0,1.0 mm,1012.3 hPa,Steady"},

 {"town":"Værløse, Denmark, Europe","lat":"55.4659","long":"12.22","surl":"www.vaerloese-vejr.dk/","fcode":"wx","nets":"Nordic","conds":"night_clear.gif,Clear,2 C,85%,,E,0.0 m/s,0.0,0.0 mm,1013.0 hPa,Steady"},

 {"town":"Ørbæk, Denmark, Europe","lat":"55.253694","long":"10.67","surl":"www.vejret.5853.dk/","fcode":"cam","nets":"Nordic","conds":"night_partly_cloudy.gif,Mostly clear,7 C,89%,5 C,NW,0.7 m/s,0.0,0.0 mm,1012.5 hPa,Steady"},

 {"town":"Tallin, Estonia, Europe","lat":"59.430","long":"24.764","surl":"","fcode":"wx","nets":"Nordic,Nordic","conds":"windy.gif,Windy,8 C,66%,2 C,N,3.1 m/s,0.0,0.0 mm,1003.6 hPa,N/a"},

 {"town":"Viimsi, Estonia, Europe","lat":"59.5009","long":"24.8625","surl":"www.martifoto.com/ilm/","fcode":"wx","nets":"Nordic","conds":"windy.gif,Windy,7 C,92%,6 C,N,1.3 m/s,0.0,0.2 mm,1003.5 hPa,Rising"},

 {"town":"Alajärvi, Pynttärinniemi, Finland, Europe","lat":"62.99533","long":"23.84883","surl":"www.rintintin.fi/saatila/","fcode":"cam","nets":"Nordic","conds":"windy.gif,Windy,4 C,95%,4 C,NNW,0.4 m/s,0.0,0.0 mm,0.0 hPa,Steady"},

 {"town":"Eura, Finland, Europe","lat":"61.12909127","long":"22.17044919","surl":"kauttua.net/","fcode":"wx","nets":"Nordic","conds":"windy.gif,Windy,4 C,94%,3 C,NNW,0.1 m/s,0.0,0.0 mm,1007.0 hPa,Steady"},

 {"town":"Haapavesi, Finland, Europe","lat":"64.17293","long":"25.54081","surl":"koti.mbnet.fi/matnes","fcode":"cam","nets":"Nordic","conds":",,5 C,94%,4 C,NW,3.0 m/s,0.0,0.0 mm,1005.0 hPa,Steady"},

 {"town":"Halikko, Finland, Europe","lat":"60.38375144","long":"23.06209453","surl":"kanninen.dyndns.org","fcode":"wx","nets":"Nordic","conds":"day_partly_cloudy.gif,Partly cloudy,5 C,96%,4 C,ENE,0.0 m/s,0.0,0.0 mm,1002.5 hPa,Rising"},

 {"town":"Haukipudas, Virpiniemi, Finland, Europe","lat":"65.129","long":"25.258","surl":"kotisivu.dnainternet.net/simokarppinen/","fcode":"wx","nets":"Nordic","conds":"day_clear.gif,Clear,3 C,96%,2 C,N,0.0 m/s,0.0,0.0 mm,1003.0 hPa,Steady"},

 {"town":"Hausjärvi, Finland, Europe","lat":"60.8232","long":"24.8664","surl":"www.kolumbus.fi/~w498244/saa/","fcode":"wx","nets":"Nordic","conds":",,5 C,99%,5 C,NW,0.1 m/s,0.0,0.3 mm,0.0 hPa,Steady"},

 {"town":"Helsinki, Lauttasaari, Finland, Europe","lat":"60.16206","long":"24.84946","surl":"www.saapalvelu.fi/helsinki/","fcode":"wx","nets":"Nordic,Nordic,Nordic,Nordic,Nordic","conds":"day_partly_cloudy.gif,Partly cloudy,6 C,94%,5 C,N,2.4 m/s,0.0,0.0 mm,1004.8 hPa,Rising"},

 {"town":"Hollola, Finland, Europe","lat":"60.983767","long":"25.51","surl":"www.phnet.fi/koulutus/hollola/lukio/details.htm","fcode":"cam","nets":"Nordic","conds":",,4 C,98%,4 C,W,0.0 m/s,0.0,0.0 mm,985.0 hPa,Rising"},

 {"town":"Janakkala, Turenki, Finland, Europe","lat":"60.9000","long":"24.6500","surl":"koti.aina.net/~sami/saa/cumulus/","fcode":"wx","nets":"Nordic","conds":"windy.gif,Windy,6 C,98%,5 C,LU,1.7 m/s,0.0,0.0 mm,1004.8 hPa,Steady"},

 {"town":"Joutsa, Finland, Europe","lat":"61.74311","long":"26.13154","surl":"www.artoruunula.fi/","fcode":"cam","nets":"Nordic","conds":"mist.gif,Mist,5 C,100%,5 C,NNW,0.0 m/s,0.0,0.2 mm,1001.7 hPa,Steady"},

 {"town":"Juva, Finland, Europe","lat":"61.885","long":"27.87633","surl":"finlandweather.dy.fi","fcode":"cam","nets":"Nordic","conds":"windy.gif,Windy,4 C,96%,4 C,NW,0.4 m/s,0.0,0.0 mm,1002.0 hPa,Rising"},

 {"town":"Jyväskylä, Finland, Europe","lat":"62.2054","long":"25.7783","surl":"jyv-weather.info/","fcode":"all","nets":"Nordic","conds":"windy.gif,Windy,5 C,93%,4 C,NW,1.3 m/s,0.0,0.2 mm,1002.7 hPa,Rising"},

 {"town":"Kajaani, Kettu, Finland, Europe","lat":"64.21444","long":"27.68138","surl":"www.tinyfox.net/weather/","fcode":"cam","nets":"Nordic","conds":"windy.gif,Windy,5 C,93%,4 C,NNW,0.9 m/s,0.0,0.0 mm,1003.6 hPa,Steady"},

 {"town":"Kalajoki, Ainali, Finland, Europe","lat":"64.03","long":"23.53","surl":"www.kotinet.com/jani.yrjana/saa","fcode":"wx","nets":"Nordic","conds":",,3 C,89%,2 C,NNW,0.0 m/s,0.0,0.4 mm,1005.2 hPa,Steady"},

 {"town":"Karjalohja, Lohjantaipale, Finland, Europe","lat":"60.25772","long":"23.74507","surl":"www.opexi.net/","fcode":"wx","nets":"Nordic","conds":",,5 C,96%,5 C,NW,0.0 m/s,0.0,0.2 mm,1004.7 hPa,Steady"},

 {"town":"Karjalohja, Nummijärvi, Finland, Europe","lat":"60.26242","long":"23.68602","surl":"www.finwx.net/","fcode":"cam","nets":"Nordic","conds":",,5 C,2%,-43 C,WSW,0.5 m/s,0.0,0.0 mm,1005.1 hPa,Rising"},

 {"town":"Karkkila, Finland, Europe","lat":"60.3218","long":"24.1350","surl":"www.moikka.com/Karkkilan_saa/","fcode":"wx","nets":"Nordic","conds":"windy.gif,Windy,6 C,95%,5 C,N,0.0 m/s,0.0,0.3 mm,1000.2 hPa,Steady"},

 {"town":"Kemiö, Finland, Europe","lat":"60.14114","long":"22.671","surl":"www.helmroos.com/weather2/wxindex.php","fcode":"cam","nets":"Nordic","conds":"day_clear.gif,Clear,6 C,97%,6 C,NNW,1.2 m/s,0.0,0.0 mm,1007.0 hPa,Rising"},

 {"town":"Kirkkonummi, Veikkola, Finland, Europe","lat":"60.265833","long":"24.448889","surl":"veikkola-weather.com/index.php","fcode":"cam","nets":"Nordic","conds":"mist.gif,Mist,5 C,99%,5 C,NNW,0.2 m/s,0.0,0.0 mm,1004.2 hPa,Rising"},

 {"town":"Kittilä, Levi, Finland, Europe","lat":"67.8077","long":"24.8047","surl":"www.levi.fi","fcode":"cam","nets":"Nordic","conds":"windy.gif,Windy,1 C,98%,1 C,NE,0.0 m/s,0.0,0.0 mm,0.0 hPa,Steady"},

 {"town":"Klaukkala, Finland, Europe","lat":"60.386","long":"24.745","surl":"www.klaukkala-saa.fi/","fcode":"all","nets":"Nordic","conds":"day_partly_cloudy.gif,Partly cloudy,5 C,96%,5 C,NW,0.8 m/s,0.0,0.0 mm,1003.7 hPa,Steady"},

 {"town":"Korppoo, Norrskata, Finland, Europe","lat":"60.2531","long":"21.6368","surl":"www.weatherlink.com/user/norrskata/","fcode":"wx","nets":"Nordic","conds":"Offline"},

 {"town":"Kotka, Hovila, Finland, Europe","lat":"60.5129","long":"26.8987","surl":"hovilaweather.talismaani.fi/","fcode":"cam","nets":"Nordic","conds":",,5 C,99%,5 C,N,0.0 m/s,0.0,0.3 mm,1003.3 hPa,Rising"},

 {"town":"Kuopio, Finland, Europe","lat":"62.8989","long":"27.6630","surl":"weather.savonia.fi/","fcode":"cam","nets":"Nordic","conds":"windy.gif,Windy,5 C,83%,3 C,NW,2.8 m/s,0.0,0.0 mm,1001.9 hPa,Steady"},

 {"town":"Kurikka, Finland, Europe","lat":"62.6330","long":"22.3905","surl":"www.esansivut.net/","fcode":"wx","nets":"Nordic","conds":"windy.gif,Windy,5 C,97%,5 C,NNE,0.4 m/s,0.0,0.2 mm,1005.9 hPa,Steady"},

 {"town":"Kärsämäki, Finland, Europe","lat":"63.973333","long":"25.74","surl":"www.karsaa.com/cumulus/index.htm","fcode":"cam","nets":"Nordic","conds":",,4 C,94%,3 C,WNW,3.8 m/s,0.0,0.0 mm,1006.3 hPa,Steady"},

 {"town":"Laitila, Finland, Europe","lat":"60.887305","long":"21.70","surl":"palmusentila.no-ip.org/","fcode":"wx","nets":"Nordic","conds":"day_clear.gif,Clear,4 C,96%,4 C,N,0.0 m/s,0.0,0.0 mm,1003.3 hPa,Steady"},

 {"town":"Lappeenranta, Nuijamaa, Finland, Europe","lat":"60.9600","long":"28.5465","surl":"nuijanet.com","fcode":"wx","nets":"Nordic","conds":"day_light_rain.gif,Light rain,5 C,97%,5 C,NW,0.7 m/s,0.0,2.0 mm,0.0 hPa,Steady"},

 {"town":"Lehmo, Finland, Europe","lat":"62.686552","long":"29.817796","surl":"www.rhead.org/","fcode":"wx","nets":"Nordic","conds":"day_partly_cloudy.gif,Partly cloudy,5 C,89%,4 C,SE,1.9 m/s,0.0,0.0 mm,1001.5 hPa,Steady"},

 {"town":"Liminka, Finland, Europe","lat":"64.812274","long":"25.44","surl":"www.liminkaweather.info/","fcode":"all","nets":"Nordic","conds":"day_clear.gif,Clear,3 C,99%,3 C,N,1.9 m/s,0.0,0.0 mm,1005.3 hPa,Steady"},

 {"town":"Lohja, Keskilohja, Finland, Europe","lat":"60.2425","long":"24.0725","surl":"www.vaski.net/lohja1.htm","fcode":"wx","nets":"Nordic","conds":",,7 C,97%,7 C,NNE,0.9 m/s,0.0,0.0 mm,1003.4 hPa,Rising"},

 {"town":"Lohja, Maksjoki, Finland, Europe","lat":"60.2003","long":"24.0038","surl":"www.maksjoki.net","fcode":"wx","nets":"Nordic","conds":"day_clear.gif,Clear,6 C,97%,5 C,NW,0.8 m/s,0.0,0.0 mm,1004.1 hPa,Steady"},

 {"town":"Lohja, Virkkala, Finland, Europe","lat":"60.1492","long":"23.9730","surl":"www.teutari.net","fcode":"all","nets":"Nordic","conds":"day_partly_cloudy.gif,Partly cloudy,5 C,95%,4 C,N,0.0 m/s,0.0,0.0 mm,1004.7 hPa,Steady"},

 {"town":"Muurame, Finland, Europe","lat":"62.098901233206","long":"25.646064877","surl":"www.zalama.net/","fcode":"lgt","nets":"Nordic","conds":"windy.gif,Windy,5 C,94%,4 C,NW,0.0 m/s,0.0,0.0 mm,1002.8 hPa,Rising"},

 {"town":"Naruska, Lohikallio, Finland, Europe","lat":"67.1794","long":"29.1936","surl":"www.saunalahti.fi/taprint/saratoga/wxindex.php","fcode":"lgt","nets":"Nordic,Nordic,Nordic,Nordic","conds":"windy.gif,Windy,3 C,97%,2 C,WNW,1.4 m/s,0.0,0.0 mm,1002.7 hPa,Steady"},

 {"town":"Naruska, R-maja, Finland, Europe","lat":"67.129495","long":"29.185","surl":"www.naruska.com/","fcode":"cam","nets":"Nordic","conds":"windy.gif,Windy,2 C,96%,2 C,NNW,2.6 m/s,0.0,0.0 mm,1002.7 hPa,Falling"},

 {"town":"Nauvo, Finland, Europe","lat":"60.19033","long":"21.895","surl":"rosti.fi/saa/","fcode":"cam","nets":"Nordic","conds":",,7 C,96%,6 C,N,1.8 m/s,0.0,0.0 mm,1004.4 hPa,Rising"},

 {"town":"Nivala, Finland, Europe","lat":"63.8936","long":"25.0205","surl":"nivalaweather.info","fcode":"wx","nets":"Nordic","conds":"day_clear.gif,Clear,3 C,99%,3 C,NE,0.0 m/s,0.0,0.0 mm,1004.6 hPa,Steady"},

 {"town":"Pello, Yliranta, Finland, Europe","lat":"66.78200","long":"23.9837","surl":"www.sahkoheikura.com/weather/","fcode":"wx","nets":"Nordic","conds":",,3 C,95%,2 C,ENE,0.0 m/s,0.0,0.0 mm,1006.5 hPa,Steady"},

 {"town":"Pertteli, Finland, Europe","lat":"60.47","long":"23.27","surl":"nordicweather.net/","fcode":"all","nets":"Nordic","conds":"day_partly_cloudy.gif,Partly cloudy,4 C,96%,4 C,WNW,0.5 m/s,0.0,0.0 mm,1005.1 hPa,Steady"},

 {"town":"Pietarsaari, Finland, Europe","lat":"63.666","long":"22.716","surl":"www.multi.fi/~ksillanp/weather.html","fcode":"lgt","nets":"Nordic","conds":"Offline"},

 {"town":"Seinäjoki, Kasperi, Finland, Europe","lat":"62.7698","long":"22.8659","surl":"www.netikka.net/jukka.salimaki/saa/wxstat/index.htm","fcode":"wx","nets":"Nordic,Nordic","conds":"windy.gif,Windy,5 C,96%,5 C,NW,1.4 m/s,0.0,0.0 mm,1005.3 hPa,Steady"},

 {"town":"Taivalkoski, Siekkinen, Finland, Europe","lat":"65.6255","long":"28.1540","surl":"taivalkoskiweather.net/","fcode":"wx","nets":"Nordic","conds":"day_clear.gif,Clear,3 C,90%,1 C,NNW,0.7 m/s,0.0,0.0 mm,1002.1 hPa,Steady"},

 {"town":"Tampere, Finland, Europe","lat":"61.514722","long":"23.50","surl":"weather.jarjus.com/","fcode":"wx","nets":"Nordic","conds":"Offline"},

 {"town":"Tampere, Hyhky, Finland, Europe","lat":"61.5056","long":"23.7386","surl":"www.pcuf.fi/~jpaasov/weather/","fcode":"wx","nets":"Nordic","conds":"Offline"},

 {"town":"Tampere, Levonmäki, Finland, Europe","lat":"61.4655","long":"23.9128","surl":"www.ilmoja.net/levonmakiwx/index.htm","fcode":"wx","nets":"Nordic","conds":"Offline"},

 {"town":"Turku, Halinen, Finland, Europe","lat":"60.46709","long":"22.30697","surl":"www.rpsaa.com","fcode":"cam","nets":"Nordic","conds":"day_partly_cloudy.gif,Partly cloudy,3 C,99%,3 C,W,0.0 m/s,0.0,0.0 mm,1013.8 hPa,Steady"},

 {"town":"Turku, Uittamo, Finland, Europe","lat":"60.423611","long":"22.265556","surl":"personal.inet.fi/koti/wx-station/","fcode":"wx","nets":"Nordic","conds":"day_partly_cloudy.gif,Partly cloudy,5 C,94%,4 C,N,3.2 m/s,0.0,0.0 mm,1005.5 hPa,Steady"},

 {"town":"Valimo, Finland, Europe","lat":"61.813625","long":"5.587621","surl":"www.valimo.info/saaasema-orivesi/","fcode":"wx","nets":"Nordic","conds":"night_partly_cloudy.gif,Partly cloudy,5 C,99%,5 C,WNW,2.2 m/s,0.0,0.0 mm,1003.1 hPa,Steady"},

 {"town":"Valkeakoski, Finland, Europe","lat":"61.2010","long":"24.1743","surl":"ritvalawx.com","fcode":"wx","nets":"Nordic","conds":"windy.gif,Windy,5 C,100%,5 C,NNW,0.9 m/s,0.0,0.0 mm,1007.0 hPa,Steady"},

 {"town":"Vihanti, Finland, Europe","lat":"64.385","long":"25.2822","surl":"www.lumiweather.info/","fcode":"wx","nets":"Nordic","conds":"windy.gif,Windy,5 C,95%,4 C,NNW,1.9 m/s,0.0,0.0 mm,0.0 hPa,Steady"},

 {"town":"Vilppula, Finland, Europe","lat":"62.01714","long":"24.48964","surl":"www.phpoint.fi/leka446/weather/index.htm","fcode":"wx","nets":"Nordic","conds":"day_clear.gif,Clear,4 C,99%,4 C,NW,0.5 m/s,0.0,0.0 mm,1004.1 hPa,Steady"},

 {"town":"Ylikiiminki, Finland, Europe","lat":"65.0008","long":"26.0930","surl":"advertiser.servebeer.com/weather_hiivatti","fcode":"cam","nets":"Nordic","conds":"windy.gif,Windy,4 C,92%,3 C,NNW,0.6 m/s,0.0,0.0 mm,1003.4 hPa,Steady"},

 {"town":"Åland, Jomala, Finland, Europe","lat":"60.1378","long":"19.8935","surl":"home.aland.net/lunken100/vaderlive/index.html","fcode":"wx","nets":"Nordic","conds":"day_clear.gif,Clear,6 C,96%,5 C,N,0.0 m/s,0.0,2.4 mm,0.0 hPa,Steady"},

 {"town":"Åland, Saltvik, Finland, Europe","lat":"60.3","long":"20.0","surl":"www.vsfbk.ax/vsfbk/vader.pbs","fcode":"wx","nets":"Nordic","conds":"day_light_rain.gif,Light rain,7 C,89%,6 C,NNW,4.9 m/s,0.0,1.0 mm,1006.9 hPa,"},

 {"town":"Echallon, Ain, France, Europe","lat":"46.210833","long":"5.741944","surl":"www.echallonmeteo.com/meteolink/wdl.html","fcode":"wx","nets":"FRWN","conds":"night_partly_cloudy.gif,Partly Cloudy,9 C,100%,9 C,NE,0 kmh,,0.0 mm,1009.2 hPa,Steady"},

 {"town":"Pont d' Ain , Ain, France, Europe","lat":"46.0256","long":"5.2013","surl":"pont-dain.meteo01.fr/","fcode":"wx","nets":"FRWN","conds":",,10 C,95%,9 C,ENE,0 kmh,,0.2 mm,1008.8 hPa,Falling Slowly"},

 {"town":"Nogentel, Aisne, France, Europe","lat":"49.016","long":"3.402","surl":"www.meteo-nogentel.fr/","fcode":"cam","nets":"FRWN","conds":"night_light_rain.gif,Showers,13 C,93%,12 C,ESE,5 kmh,,0.0 mm,1009.0 hPa,Steady"},

 {"town":"Saint Ennemond, Allier, France, Europe","lat":"46.667432","long":"3.424407","surl":"meteo.mybaobab.fr","fcode":"wx","nets":"FRWN","conds":",,13 C,99%,13 C,N,0 kmh,6,0.4 mm,1010.3 hPa,Steady"},

 {"town":"Bourg-Saint-Andéol, Ardèche, France, Europe","lat":"44.371389","long":"4.633611","surl":"meteo07.hebergratuit.com","fcode":"wx","nets":"FRWN","conds":"Offline"},

 {"town":"Escales, Aude, France, Europe","lat":"43.2167","long":"2.69222","surl":"www.montagne-vert.nl/het-weer.html#WDL","fcode":"wx","nets":"FRWN","conds":"Offline"},

 {"town":"Montréal, Aude, France, Europe","lat":"43.2","long":"2.15","surl":"www.meteo-montrealmalepere11.fr/","fcode":"wx","nets":"FRWN","conds":"night_partly_cloudy.gif,Partly Cloudy,17 C,57%,8 C,ESE,6 kmh,8,0.0 mm,1008.1 hPa,Steady"},

 {"town":"Neway-Leucate, Aude, France, Europe","lat":"42.9105","long":"3.0294","surl":"www.neway-leucate.com/fr/meteo/meteo_leucate/","fcode":"cam","nets":"FRWN","conds":"Offline"},

 {"town":"Kogenheim, Bas-Rhin, France, Europe","lat":"48.3381","long":"7.5422","surl":"www.meteo-kogenheim.fr/","fcode":"wx","nets":"FRWN","conds":",,9 C,93%,8 C,NNW,1 kmh,3,0.0 mm,1011.6 hPa,Falling Slowly"},

 {"town":"Vars, Charente, France, Europe","lat":"45.763056","long":"-0.124722","surl":"www.meteo16-vars.com/","fcode":"wx","nets":"FRWN","conds":"night_clear.gif,Clear,15 C,98%,15 C,SE,0 kmh,,0.2 mm,1007.8 hPa,Steady"},

 {"town":"Île de Ré, Charente-Maritime, France, Europe","lat":"46.2568","long":"-1.5168","surl":"www.jf-i2r.com/wdl/index.html","fcode":"cam","nets":"FRWN","conds":"night_partly_cloudy.gif,Partly Cloudy,18 C,93%,17 C,SSW,8 kmh,14,0.8 mm,1005.9 hPa,Steady"},

 {"town":"Marcilly-sur-Tille, Côte-d'Or, France, Europe","lat":"47.52","long":"5.1325","surl":"meteotille.tbdt.fr","fcode":"wx","nets":"FRWN","conds":",,14 C,97%,13 C,ENE,0 kmh,5,0.0 mm,1008.0 hPa,Steady"},

 {"town":"Sincey-les-Rouvray, Côte-d'Or, France, Europe","lat":"47.433","long":"4.123","surl":"www.meteo-sincey.com/","fcode":"wx","nets":"FRWN","conds":"day_clear.gif,Dry,11 C,96%,10 C,SSE,0 kmh,,0.5 mm,1007.7 hPa,Steady"},

 {"town":"Mussidan, Dordogne, France, Europe","lat":"45.035833","long":"0.366389","surl":"www.meteo-mussidan.fr/","fcode":"cam","nets":"FRWN","conds":"Offline"},

 {"town":"Montelimar, Drôme, France, Europe","lat":"44.55805556","long":"4.750833333","surl":"www.meteo-montelo.fr/wdl.php","fcode":"wx","nets":"FRWN","conds":"Offline"},

 {"town":"Mennecy, Essonne, France, Europe","lat":"48.568","long":"2.434","surl":"www.meteo-mennecy.fr/wdl/direct.html","fcode":"wx","nets":"FRWN","conds":"night_rain.gif,Rain,14 C,98%,14 C,WNW,2 kmh,,0.2 mm,1009.3 hPa,Steady"},

 {"town":"Épégard, Eure, France, Europe","lat":"49.186667","long":"0.885556","surl":"www.epegard.net/","fcode":"wx","nets":"FRWN","conds":",,13 C,98%,13 C,N,9 kmh,11,0.0 mm,1006.3 hPa,Falling Slowly"},

 {"town":"Guainville, Eure-et-Loir, France, Europe","lat":"48.325","long":"1.458","surl":"meteo-guainville.pagesperso-orange.fr/","fcode":"wx","nets":"FRWN","conds":"Offline"},

 {"town":"Plouguerneau, Finistère, France, Europe","lat":"48.627222","long":"-4.538333","surl":"meteo-plouguerneau.fr/","fcode":"wx","nets":"FRWN","conds":"night_cloudy.gif,Mostly Cloudy,16 C,99%,16 C,SSW,10 kmh,16,1.4 mm,1001.8 hPa,Falling Slowly"},

 {"town":"Cernay, Haut-Rhin, France, Europe","lat":"47.811","long":"7.161","surl":"meteo-cernay.fr/","fcode":"cam","nets":"FRWN","conds":"day_clear.gif,Dry,9 C,93%,8 C,ENE,1 kmh,,0.2 mm,1012.9 hPa,Steady"},

 {"town":"Colmar, Haut-Rhin, France, Europe","lat":"48.0817","long":"7.3556","surl":"mameteocolmar.free.fr/index.php","fcode":"wx","nets":"FRWN","conds":",,10 C,86%,8 C,WNW,1 kmh,5,0.0 mm,1012.7 hPa,Steady"},

 {"town":"Saint-Haon, Haute-Loire, France, Europe","lat":"44.8469","long":"3.7592","surl":"www.meteo43sainthaon.fr/","fcode":"wx","nets":"FRWN","conds":",,8 C,96%,8 C,N,2 kmh,5,0.2 mm,1009.4 hPa,Falling Slowly"},

 {"town":"Sciez, Haute-Savoie, France, Europe","lat":"46.3333","long":"6.3833","surl":"www.meteo-sciez.com/","fcode":"cam","nets":"FRWN","conds":"day_clear.gif,Dry,11 C,99%,11 C,SSW,0 kmh,,0.2 mm,1010.0 hPa,Steady"},

 {"town":"Saint-Véran, Hautes-Alpes, France, Europe","lat":"44.7","long":"6.866667","surl":"www.saintveranmeteo.eu/","fcode":"wx","nets":"FRWN","conds":"night_cloudy.gif,Mostly Cloudy,6 C,66%,,ENE,0 kmh,2,0.0 mm,1008.6 hPa,Steady"},

 {"town":"Clamart, Hauts-de-Seine, France, Europe","lat":"48.812","long":"2.277","surl":"www.plebraud-baobab.org/","fcode":"wx","nets":"FRWN","conds":"night_rain.gif,Rain,15 C,96%,14 C,NE,0 kmh,3,0.0 mm,1007.0 hPa,Falling Slowly"},

 {"town":"Creissan, Hérault, France, Europe","lat":"43.223784","long":"3.04485","surl":"www.meteo-creissan.com","fcode":"wx","nets":"FRWN","conds":"night_partly_cloudy.gif,Partly Cloudy,15 C,93%,14 C,NNE,4 kmh,3,0.4 mm,1009.4 hPa,Steady"},

 {"town":"Chavagne, Ille-et-Vilaine, France, Europe","lat":"48.052","long":"-1.788","surl":"palmak.info/meteo/index.html","fcode":"wx","nets":"FRWN","conds":"night_cloudy.gif,Overcast,17 C,95%,16 C,SW,1 kmh,3,7.2 mm,1004.7 hPa,Steady"},

 {"town":"Laillé, Ille-et-Vilaine, France, Europe","lat":"47.969","long":"-1.745","surl":"meteo-laille.fr/","fcode":"wx","nets":"FRWN","conds":"night_cloudy.gif,Mostly Cloudy,16 C,98%,16 C,SSW,0 kmh,8,0.0 mm,1004.6 hPa,--"},

 {"town":"Montreuil-sur-Ille, Ille-et-Vilaine, France, Europe","lat":"48.2968","long":"-1.685","surl":"meteo-montreuil.calia.fr","fcode":"wx","nets":"FRWN","conds":"Offline"},

 {"town":"Montlouis-sur-Loire, Indre-et-Loire, France, Europe","lat":"47.388611","long":"0.910278","surl":"www.jjbo.fr/meteo-montlouis/","fcode":"wx","nets":"FRWN","conds":"day_clear.gif,Dry,15 C,98%,15 C,E,0 kmh,,0.0 mm,1008.5 hPa,Steady"},

 {"town":"Bellegarde-Poussieu, Isère, France, Europe","lat":"45.3806","long":"4.9611","surl":"meteo.b.poussieu.free.fr/index.html","fcode":"wx","nets":"FRWN","conds":"Offline"},

 {"town":"St Appolinard, Isère, France, Europe","lat":"45.1897","long":"5.2631","surl":"www.sweetwebhome.com/?show=weatherlive","fcode":"cam","nets":"FRWN","conds":"night_clear.gif,Clear,13 C,91%,11 C,NW,3 kmh,2,0.0 mm,1008.9 hPa,Falling Slowly"},

 {"town":"Pouillon, Landes, France, Europe","lat":"43.60611","long":"-0.996389","surl":"www.davelar-wevar.com/","fcode":"wx","nets":"FRWN","conds":"night_partly_cloudy.gif,Partly Cloudy,15 C,96%,15 C,E,0 kmh,,0.0 mm,1007.8 hPa,Steady"},

 {"town":"Saint-Brevin les Pins, Loire-Atlantique, France, Europe","lat":"47.23586","long":"-2.1598","surl":"www.meteo-saint-brevin.fr","fcode":"cam","nets":"FRWN","conds":"day_cloudy.gif,Overcast,17 C,98%,17 C,SSW,5 kmh,10,10.4 mm,1005.5 hPa,Steady"},

 {"town":"Esquirol, Lot-et-Garonne, France, Europe","lat":"44.333333","long":"0.5","surl":"www.weather.esquirol47.com/index.php","fcode":"wx","nets":"FRWN","conds":"night_clear.gif,Clear,16 C,90%,14 C,SSE,0 kmh,,0.0 mm,1007.6 hPa,Steady"},

 {"town":"Rablay sur Layon, Maine-et-Loire, France, Europe","lat":"47.2938","long":"-0.5825","surl":"labrise.dnsalias.com/index.php","fcode":"wx","nets":"FRWN","conds":"night_rain.gif,heavy Rain +Mist,16 C,100%,16 C,ENE,0 kmh,2,1.4 mm,1005.4 hPa,Falling Slowly"},

 {"town":"Conflans-en-Jarnisy, Meurthe-et-Moselle, France, Europe","lat":"49.166667","long":"5.85","surl":"monsite-meteo.eu","fcode":"wx","nets":"FRWN","conds":"night_cloudy.gif,Overcast,6 C,91%,5 C,E,0 kmh,,0.0 mm,1010.0 hPa,Falling Slowly"},

 {"town":"Bar-le-Duc, Meuse, France, Europe","lat":"48.76861","long":"5.17667","surl":"www.meteo-barleduc.net/?q=node/9","fcode":"wx","nets":"FRWN","conds":"night_clear.gif,Clear,11 C,77%,7 C,SE,4 kmh,4,0.0 mm,988.0 hPa,Falling Slowly"},

 {"town":"Cousances les Forges, Meuse, France, Europe","lat":"48.62407","long":"5.07688","surl":"meteocousances.perso.sfr.fr/","fcode":"wx","nets":"FRWN","conds":"night_cloudy.gif,Overcast,11 C,89%,9 C,N,0 kmh,,0.0 mm,1010.0 hPa,Steady"},

 {"town":"Saint-Armel, Morbihan, France, Europe","lat":"47.577776","long":"-2.712222","surl":"monsitemeteo.fr/wxindex.php","fcode":"wx","nets":"FRWN","conds":"day_cloudy.gif,Overcast,17 C,98%,17 C,S,2 kmh,7,3.3 mm,1005.0 hPa,Steady"},

 {"town":"Ennery, Moselle, France, Europe","lat":"49.216667","long":"6.223333","surl":"www.hc-creation.fr/meteo/","fcode":"wx","nets":"FRWN","conds":"night_cloudy.gif,Overcast,6 C,89%,5 C,N,0 kmh,1,0.0 mm,1010.8 hPa,Falling Slowly"},

 {"town":"Orny, Moselle, France, Europe","lat":"49.02456803","long":"6.24608345","surl":"www.meteo-orny.fr/","fcode":"wx","nets":"FRWN","conds":"day_cloudy.gif,Overcast,5 C,98%,6 C,NNE,6 kmh,8,0.0 mm,1011.1 hPa,Steady"},

 {"town":"Rezonville, Moselle, France, Europe","lat":"49.098","long":"5.991","surl":"www.meteo-rezonville.com","fcode":"cam","nets":"FRWN","conds":"Offline"},

 {"town":"Tinte, Nièvre, France, Europe","lat":"46.833174","long":"3.391092","surl":"tinte.nievre.free.fr/","fcode":"wx","nets":"FRWN","conds":"Offline"},

 {"town":"Annullin, Nord, France, Europe","lat":"50.519440","long":"2.933666","surl":"f1lxj.free.fr","fcode":"wx","nets":"FRWN","conds":"day_cloudy.gif,Mostly Cloudy,6 C,87%,4 C,E,2 kmh,4,0.0 mm,1008.5 hPa,Steady"},

 {"town":"Armentières, Nord, France, Europe","lat":"+50.688","long":"+2.876","surl":"meteo.armentieres.pagesperso-orange.fr/","fcode":"wx","nets":"FRWN","conds":"night_cloudy.gif,Mostly Cloudy,7 C,90%,6 C,ESE,0 kmh,,0.0 mm,1008.3 hPa,Falling Slowly"},

 {"town":"Issoire, Puy-de-Dôme, France, Europe","lat":"45.32431","long":"3.13242","surl":"pages.titi.pagesperso-orange.fr/meteo/meteo","fcode":"cam","nets":"FRWN","conds":"night_cloudy.gif,Mostly Cloudy,11 C,88%,9 C,NNW,0 kmh,,0.0 mm,1011.3 hPa,Steady"},

 {"town":"Boucau, Pyrénées-Atlantiques, France, Europe","lat":"43.520570","long":"-1.475526","surl":"boucaumeteo.free.fr/","fcode":"wx","nets":"FRWN","conds":"Offline"},

 {"town":"Brignais, Rhône, France, Europe","lat":"45.3951","long":"4.4426","surl":"meteo-orlienas.perso.sfr.fr/index.html","fcode":"cam","nets":"FRWN","conds":"day_cloudy.gif,Overcast,13 C,99%,13 C,SW,0 kmh,1,0.3 mm,1010.1 hPa,Steady"},

 {"town":"Connerré, Sarthe, France, Europe","lat":"48.05448","long":"0.47136337","surl":"meteo.pascal.pagesperso-orange.fr/","fcode":"cam","nets":"FRWN","conds":",,16 C,94%,15 C,SSE,6 kmh,6,0.0 mm,1009.7 hPa,Falling Slowly"},

 {"town":"Aix-les-Bains, Savoie, France, Europe","lat":"45.68845","long":"5.915279","surl":"f1jxq.passion-radio.org/weather-live-forecast/","fcode":"wx","nets":"FRWN","conds":"day_clear.gif,Dry,13 C,94%,12 C,SSW,3 kmh,3,0.0 mm,1011.4 hPa,Steady"},

 {"town":"Fécamp, Seine-Maritime, France, Europe","lat":"49.7583","long":"0.38","surl":"www.altocumulus.net/","fcode":"wx","nets":"FRWN","conds":"mist.gif,Mist,13 C,93%,12 C,S,19 kmh,20,0.0 mm,1005.7 hPa,Falling Slowly"},

 {"town":"Neuilly-sur-Marne, Seine-Saint-Denis, France, Europe","lat":"48.8500","long":"2.5333","surl":"weathermarl.free.fr","fcode":"wx","nets":"FRWN","conds":"mist.gif,Mist,14 C,93%,12 C,E,0 kmh,,0.0 mm,1008.2 hPa,Falling Slowly"},

 {"town":"Lagny-sur-Marne, Seine-et-Marne, France, Europe","lat":"48.875278","long":"2.718611","surl":"www.toutletempslaniaque.net","fcode":"wx","nets":"FRWN","conds":"night_clear.gif,Clear,13 C,93%,12 C,ESE,1 kmh,,0.0 mm,1007.4 hPa,Steady"},

 {"town":"Perthes en Gatinais, Seine-et-Marne, France, Europe","lat":"48.4833","long":"2.5667","surl":"meteoperthes.website.org/","fcode":"wx","nets":"FRWN","conds":"night_light_rain.gif,Showers,14 C,100%,14 C,SE,0 kmh,1,0.0 mm,1009.1 hPa,Steady"},

 {"town":"Villevaudé, Seine-et-Marne, France, Europe","lat":"48.918333","long":"2.652222","surl":"villevaudemeteo77410.pagesperso-orange.fr","fcode":"wx","nets":"FRWN","conds":"Offline"},

 {"town":"Draguignan, Var, France, Europe","lat":"43.531","long":"6.499","surl":"meteodraguignan.free.fr/","fcode":"cam","nets":"FRWN","conds":"day_partly_cloudy.gif,Cloudy,14 C,85%,12 C,NNE,0 kmh,,0.0 mm,1010.1 hPa,Steady"},

 {"town":"Montauroux, Var, France, Europe","lat":"43.619267","long":"6.783201","surl":"www.montauroux.info","fcode":"lgt","nets":"FRWN","conds":"day_partly_cloudy.gif,Partly Cloudy,14 C,96%,13 C,SE,0 kmh,,0.0 mm,1009.4 hPa,Steady"},

 {"town":"Orange, Vaucluse, France, Europe","lat":"44.1","long":"4.8","surl":"www.meteorange.fr","fcode":"wx","nets":"FRWN","conds":"night_clear.gif,Clear,15 C,87%,13 C,N,0 kmh,,0.0 mm,1010.3 hPa,Steady"},

 {"town":"Saint-Urbain, Vendée, France, Europe","lat":"46.885612","long":"-2.001983","surl":"www.meteo-saint-urbain.fr","fcode":"cam","nets":"FRWN","conds":"night_light_rain.gif,Showers,16 C,94%,15 C,SSW,1 kmh,3,23.4 mm,1007.0 hPa,Steady"},

 {"town":"La Petite-Fosse, Vosges, France, Europe","lat":"48.321","long":"7.054","surl":"www.fibm.fr/meteo/","fcode":"wx","nets":"FRWN","conds":"night_clear.gif,Clear,15 C,26%,-5 C,SW,4 kmh,4,0.0 mm,1014.0 hPa,Steady"},

 {"town":"Ios, Aegean, Greece, Europe","lat":"36.727285","long":"25.277803","surl":"www.homersinn.com/ioshotel/en/32/weather/","fcode":"cam","nets":"GRWN","conds":"day_partly_cloudy.gif,Scattered Clouds,20 C,77%,16 C,NE,0 kmh,,0.0 mm,1005.4 hPa,Rising"},

 {"town":"Kalymnos, Aegean, Greece, Europe","lat":"36.947624","long":"26.983452","surl":"penteli.meteo.gr/stations/kalymnos/","fcode":"wx","nets":"GRWN","conds":"day_partly_cloudy.gif,Partly Cloudy,19 C,91%,18 C,N,0 kmh,,0.0 mm,1009.8 hPa,Steady"},

 {"town":"Kasos, Aegean, Greece, Europe","lat":"35.416959","long":"26.923370","surl":"penteli.meteo.gr/stations/kasos/","fcode":"wx","nets":"GRWN","conds":"day_partly_cloudy.gif,Scattered Clouds,21 C,87%,18 C,SSE,5 kmh,,0.0 mm,1007.8 hPa,Steady"},

 {"town":"Lemnos, Aegean, Greece, Europe","lat":"39.874553","long":"25.271816","surl":"penteli.meteo.gr/stations/lemnos/","fcode":"wx","nets":"GRWN","conds":"day_cloudy.gif,Mostly Cloudy,16 C,82%,13 C,N,8 kmh,18,0.0 mm,1009.6 hPa,Steady"},

 {"town":"Lesvos, Aegean, Greece, Europe","lat":"39.179676","long":"26.485977","surl":"penteli.meteo.gr/stations/lesvos-thermi/","fcode":"wx","nets":"GRWN","conds":"day_partly_cloudy.gif,Partly Cloudy,17 C,75%,12 C,SW,6 kmh,,0.0 mm,1010.5 hPa,Steady"},

 {"town":"Mykonos, Aegean, Greece, Europe","lat":"37.448079","long":"25.332413","surl":"penteli.meteo.gr/stations/mykonos/","fcode":"wx","nets":"GRWN","conds":"day_partly_cloudy.gif,Scattered Clouds,21 C,73%,16 C,ENE,11 kmh,21,0.0 mm,1010.2 hPa,Steady"},

 {"town":"Patmos, Aegean, Greece, Europe","lat":"37.308245","long":"26.548119","surl":"penteli.meteo.gr/stations/patmos/","fcode":"wx","nets":"GRWN","conds":"day_cloudy.gif,Mostly Cloudy,21 C,76%,17 C,NNE,3 kmh,,0.0 mm,1009.6 hPa,Steady"},

 {"town":"Samos, Aegean, Greece, Europe","lat":"37.791708","long":"26.703987","surl":"penteli.meteo.gr/stations/samos/","fcode":"wx","nets":"GRWN","conds":"day_cloudy.gif,Mostly Cloudy,16 C,87%,14 C,SSW,6 kmh,,0.0 mm,1009.3 hPa,Steady"},

 {"town":"Kalyvia Thorikou , Attica, Greece, Europe","lat":"37.880205","long":"23.930109","surl":"www.weatherdata.gr/","fcode":"cam","nets":"GRWN","conds":"day_cloudy.gif,Mostly Cloudy,18 C,79%,14 C,E,0 kmh,,0.0 mm,1011.8 hPa,Steady"},

 {"town":"Agrinio, Central Greece, Greece, Europe","lat":"38.641317","long":"21.399693","surl":"penteli.meteo.gr/stations/agrinio/","fcode":"wx","nets":"GRWN","conds":"day_partly_cloudy.gif,Scattered Clouds,18 C,81%,14 C,NNE,2 kmh,8,0.0 mm,1012.1 hPa,Steady"},

 {"town":"Arachova, Central Greece, Greece, Europe","lat":"38.480445","long":"22.58303","surl":"www.meteoarachova.com/","fcode":"cam","nets":"GRWN","conds":"day_partly_cloudy.gif,Scattered Clouds,13 C,88%,11 C,NNE,0 kmh,,0.0 mm,1010.0 hPa,Rising"},

 {"town":"Karystos, Central Greece, Greece, Europe","lat":"38.016037","long":"24.420547","surl":"www.in-karystos.gr/weather/forecast.html","fcode":"cam","nets":"GRWN","conds":"day_cloudy.gif,Mostly Cloudy,0 C,0%,,,0 kmh,,0.0 mm,1011.0 hPa,Steady"},

 {"town":"Lamia, Central Greece, Greece, Europe","lat":"38.900001","long":"22.399999","surl":"www.lamiawebcam.gr/","fcode":"cam","nets":"GRWN","conds":"day_clear.gif,Dry,18 C,86%,16 C,N,0 kmh,,0.0 mm,1010.8 hPa,Steady"},

 {"town":"Livadia, Central Greece, Greece, Europe","lat":"38.436715","long":"22.878406","surl":"www.meteolivadia.com/","fcode":"cam","nets":"GRWN","conds":"day_partly_cloudy.gif,Scattered Clouds,17 C,87%,15 C,SW,0 kmh,,0.0 mm,1011.8 hPa,Rising"},

 {"town":"Vasiliko Evia, Central Greece, Greece, Europe","lat":"38.424581","long":"23.670221","surl":"www.sw8euo.gr/","fcode":"cam","nets":"GRWN","conds":"day_clear.gif,Dry,17 C,91%,16 C,NNE,0 kmh,,0.4 mm,1011.1 hPa,Steady"},

 {"town":"Agios Nikolaos, Crete, Greece, Europe","lat":"35.189162","long":"25.717535","surl":"penteli.meteo.gr/stations/aghiosnikolaos/","fcode":"wx","nets":"GRWN","conds":",,19 C,71%,13 C,WSW,14 kmh,22,0.0 mm,1009.7 hPa,Rising Slowly"},

 {"town":"Chania, Crete, Greece, Europe","lat":"35.503574","long":"24.018860","surl":"penteli.meteo.gr/stations/chania/","fcode":"wx","nets":"GRWN","conds":"day_partly_cloudy.gif,Partly Cloudy,19 C,83%,16 C,NNW,0 kmh,,0.0 mm,1009.3 hPa,Rising Slowly"},

 {"town":"Heraklion, Crete, Greece, Europe","lat":"35.342397","long":"25.142727","surl":"penteli.meteo.gr/stations/heraclionport/","fcode":"wx","nets":"GRWN","conds":"day_partly_cloudy.gif,Partly Cloudy,19 C,82%,16 C,WSW,8 kmh,,0.0 mm,1008.9 hPa,Steady"},

 {"town":"Ierapetra, Crete, Greece, Europe","lat":"35.011927","long":"25.741096","surl":"penteli.meteo.gr/stations/ierapetra/","fcode":"wx","nets":"GRWN","conds":",,20 C,87%,18 C,N,14 kmh,27,0.0 mm,1010.0 hPa,Steady"},

 {"town":"Paleochora, Crete, Greece, Europe","lat":"35.230809","long":"23.683090","surl":"penteli.meteo.gr/stations/paleochora/","fcode":"wx","nets":"GRWN","conds":"Offline"},

 {"town":"Rethymno, Crete, Greece, Europe","lat":"35.361467","long":"24.475479","surl":"penteli.meteo.gr/stations/rethymno/","fcode":"wx","nets":"GRWN","conds":",,19 C,84%,16 C,N,5 kmh,8,0.0 mm,1008.4 hPa,Steady"},

 {"town":"Ioannina, Epirus, Greece, Europe","lat":"39.659956","long":"20.846558","surl":"users.otenet.gr/~meteoale/","fcode":"cam","nets":"GRWN","conds":"Offline"},

 {"town":"Preveza, Epirus, Greece, Europe","lat":"38.990101","long":"20.720202","surl":"www.tzawaras.com/","fcode":"cam","nets":"GRWN","conds":"Offline"},

 {"town":"Ithaki, Ionian Islands, Greece, Europe","lat":"38.362047","long":"20.718842","surl":"penteli.meteo.gr/stations/ithaki/","fcode":"wx","nets":"GRWN","conds":"day_cloudy.gif,Mostly Cloudy,19 C,91%,17 C,SE,0 kmh,,0.2 mm,1010.2 hPa,Steady"},

 {"town":"Kerkyra, Ionian Islands, Greece, Europe","lat":"39.648359","long":"19.852810","surl":"penteli.meteo.gr/stations/kerkyra/","fcode":"wx","nets":"GRWN","conds":"day_cloudy.gif,Mostly Cloudy,17 C,97%,16 C,WSW,3 kmh,10,0.0 mm,1010.5 hPa,Steady"},

 {"town":"Paxoi, Ionian Islands, Greece, Europe","lat":"39.195935","long":"20.161285","surl":"penteli.meteo.gr/stations/paxoi/","fcode":"wx","nets":"GRWN","conds":"Offline"},

 {"town":"Dion, Macedonia, Greece, Europe","lat":"40.172691","long":"22.486181","surl":"penteli.meteo.gr/stations/dion/","fcode":"wx","nets":"GRWN","conds":",,15 C,79%,12 C,SSE,0 kmh,,0.0 mm,1010.8 hPa,Rising Slowly"},

 {"town":"Drama, Macedonia, Greece, Europe","lat":"41.155833","long":"24.102500","surl":"www.meteodrama.gr/","fcode":"cam","nets":"GRWN","conds":"Offline"},

 {"town":"Florina, Macedonia, Greece, Europe","lat":"40.782032","long":"21.410980","surl":"penteli.meteo.gr/stations/florina/","fcode":"wx","nets":"GRWN","conds":",,8 C,92%,6 C,N,0 kmh,,0.0 mm,1015.1 hPa,Rising Slowly"},

 {"town":"Grevena, Macedonia, Greece, Europe","lat":"40.083185","long":"21.426773","surl":"penteli.meteo.gr/stations/grevena/","fcode":"wx","nets":"GRWN","conds":",,14 C,92%,13 C,E,2 kmh,6,0.0 mm,1010.6 hPa,Steady"},

 {"town":"Kastoria, Macedonia, Greece, Europe","lat":"40.504855","long":"21.322060","surl":"penteli.meteo.gr/stations/kastoria/","fcode":"wx","nets":"GRWN","conds":",,13 C,81%,10 C,WSW,0 kmh,,0.0 mm,1009.8 hPa,Steady"},

 {"town":"Kavala, Macedonia, Greece, Europe","lat":"40.940281","long":"24.400282","surl":"www.meteokav.gr/","fcode":"cam","nets":"GRWN","conds":"Offline"},

 {"town":"Nevrokopi, Macedonia, Greece, Europe","lat":"41.343798","long":"23.866596","surl":"penteli.meteo.gr/stations/nevrokopi/","fcode":"wx","nets":"GRWN","conds":",,4 C,94%,3 C,E,0 kmh,,0.0 mm,1012.3 hPa,Rising Slowly"},

 {"town":"Polygyros, Macedonia, Greece, Europe","lat":"40.377003","long":"23.444481","surl":"penteli.meteo.gr/stations/polygyros/","fcode":"wx","nets":"GRWN","conds":",,14 C,73%,9 C,NNE,0 kmh,,0.0 mm,1010.8 hPa,Steady"},

 {"town":"Thessaloniki, Macedonia, Greece, Europe","lat":"40.631667","long":"22.948056","surl":"www.meteothes.gr/","fcode":"cam","nets":"GRWN","conds":"day_partly_cloudy.gif,Cloudy2,18 C,69%,12 C,NE,0 kmh,,0.0 mm,1011.4 hPa,Steady"},

 {"town":"Veria, Macedonia, Greece, Europe","lat":"40.523194","long":"22.201824","surl":"www.veriaweather.com/","fcode":"cam","nets":"GRWN","conds":"day_cloudy.gif,Mostly Cloudy,15 C,70%,10 C,WNW,0 kmh,,0.0 mm,1010.6 hPa,Rising Slowly"},

 {"town":"Isthmos, Peloponnese, Greece, Europe","lat":"37.918030","long":"23.006916","surl":"penteli.meteo.gr/stations/isthmos/","fcode":"wx","nets":"GRWN","conds":",,-39 C,0%,,S,18 kmh,27,0.2 mm,1011.3 hPa,Steady"},

 {"town":"Kalamata, Peloponnese, Greece, Europe","lat":"37.033056","long":"22.106944","surl":"www.weather-messinia.gr/weather/","fcode":"cam","nets":"GRWN","conds":"Offline"},

 {"town":"Megalopoli, Peloponnese, Greece, Europe","lat":"37.397837","long":"22.138138","surl":"penteli.meteo.gr/stations/megalopoli/","fcode":"wx","nets":"GRWN","conds":",,13 C,96%,12 C,NNE,0 kmh,,0.2 mm,1010.1 hPa,Steady"},

 {"town":"Molaoi, Peloponnese, Greece, Europe","lat":"36.802394","long":"22.855682","surl":"penteli.meteo.gr/stations/molaoi/","fcode":"wx","nets":"GRWN","conds":",,19 C,76%,15 C,N,0 kmh,,0.0 mm,1009.8 hPa,Steady"},

 {"town":"Olympia, Peloponnese, Greece, Europe","lat":"37.645550","long":"21.626415","surl":"penteli.meteo.gr/stations/olympia/","fcode":"wx","nets":"GRWN","conds":",,17 C,86%,15 C,E,0 kmh,,0.0 mm,1009.3 hPa,Steady"},

 {"town":"Patra, Peloponnese, Greece, Europe","lat":"38.234722","long":"21.743333","surl":"www.metar.gr/ws/patra/","fcode":"cam","nets":"GRWN","conds":"day_partly_cloudy.gif,Scattered Clouds,19 C,76%,15 C,NNE,0 kmh,2,0.0 mm,1009.9 hPa,Steady"},

 {"town":"Vartholomio, Peloponnese, Greece, Europe","lat":"37.862043","long":"21.206703","surl":"penteli.meteo.gr/stations/vartholomio/","fcode":"wx","nets":"GRWN","conds":"day_partly_cloudy.gif,Partly Cloudy,15 C,90%,14 C,W,0 kmh,,0.0 mm,1009.1 hPa,Steady"},

 {"town":"Karditsa, Thessaly, Greece, Europe","lat":"39.379167","long":"21.926111","surl":"www.meteokar.gr/","fcode":"cam","nets":"GRWN","conds":"day_partly_cloudy.gif,Cloudy2,18 C,87%,16 C,NNW,0 kmh,,0.0 mm,1010.1 hPa,Steady"},

 {"town":"Volos Nea Ionia, Thessaly, Greece, Europe","lat":"39.369167","long":"22.928611","surl":"www.metar.gr/ws/volos/","fcode":"cam","nets":"GRWN","conds":",,18 C,74%,13 C,NNE,5 kmh,6,0.0 mm,1011.0 hPa,Steady"},

 {"town":"Zagora, Thessaly, Greece, Europe","lat":"39.441885","long":"23.104248","surl":"penteli.meteo.gr/stations/zagora/","fcode":"wx","nets":"GRWN","conds":",,15 C,87%,13 C,WSW,5 kmh,19,0.0 mm,1013.6 hPa,Steady"},

 {"town":"Imeros, Thrace, Greece, Europe","lat":"40.956980","long":"25.369277","surl":"penteli.meteo.gr/stations/imeros/","fcode":"wx","nets":"GRWN","conds":"day_cloudy.gif,Mostly Cloudy,15 C,77%,11 C,ENE,3 kmh,,0.0 mm,1009.7 hPa,Rising Slowly"},

 {"town":"Metaxades, Thrace, Greece, Europe","lat":"41.419028","long":"26.224279","surl":"penteli.meteo.gr/stations/metaxades/","fcode":"wx","nets":"GRWN","conds":",,14 C,70%,8 C,SW,2 kmh,,0.0 mm,1011.6 hPa,Steady"},

 {"town":"Samothraki, Thrace, Greece, Europe","lat":"40.470910","long":"25.521240","surl":"penteli.meteo.gr/stations/samothraki/","fcode":"wx","nets":"GRWN","conds":",,17 C,74%,13 C,ENE,2 kmh,,0.0 mm,1010.5 hPa,Steady"},

 {"town":"Kulusuk, Greenland, Europe","lat":"65.580313","long":"-37.5","surl":"iserit.greennet.gl/alfis","fcode":"cam","nets":"Nordic","conds":"night_clear.gif,Clear,2 C,83%,-1 C,NW,0.2 m/s,0.0,3.7 mm,993.9 hPa,Rising"},

 {"town":"Alsórákos, Budapest, Hungary, Europe","lat":"47.5155661","long":"19.1283342","surl":"www.csabadr.hu/","fcode":"all","nets":"HUWN","conds":"Offline"},

 {"town":"Budapest, Budapest, Hungary, Europe","lat":"47.48917","long":"19.06917","surl":"wieser.hu/index.php","fcode":"wx","nets":"HUWN","conds":"day_partly_cloudy.gif,Partly Cloudy,8 C,50%,-2 C,WNW,6 kmh,9,0.0 mm,1014.0 hPa,Steady"},

 {"town":"Kalocsa, Bács-Kiskun megye, Hungary, Europe","lat":"46.3174","long":"18.5875","surl":"www.flaiszg.hu/","fcode":"cam","nets":"HUWN","conds":"day_cloudy.gif,Overcast,6 C,90%,4 C,WNW,0 kmh,,0.0 mm,1015.5 hPa,Rising Slowly"},

 {"town":"Mezõberény, Békés, Hungary, Europe","lat":"46.8358","long":"21.0292","surl":"berenymet.polarnet.hu/index.php","fcode":"wx","nets":"HUWN","conds":"day_clear.gif,Dry,7 C,88%,5 C,WSW,0 kmh,,0.0 mm,1022.0 hPa,Steady"},

 {"town":"Hódmezõvásárhely, Csongrád, Hungary, Europe","lat":"46.4368","long":"20.3378","surl":"www.vrona.hu/weather","fcode":"wx","nets":"HUWN","conds":"day_clear.gif,Dry,8 C,94%,7 C,WNW,5 kmh,5,0.2 mm,1018.0 hPa,Rising Slowly"},

 {"town":"Füle, Fejér, Hungary, Europe","lat":"47.0531","long":"18.2512","surl":"www.szabo-istvan.hu/","fcode":"cam","nets":"HUWN","conds":"Offline"},

 {"town":"Hajdúnánás, Hajdú-Bihar, Hungary, Europe","lat":"47.856","long":"21.416","surl":"www.nanasmet.hu","fcode":"cam","nets":"HUWN","conds":"day_clear.gif,Dry,3 C,89%,2 C,NNE,0 kmh,,0.0 mm,1014.3 hPa,Steady"},

 {"town":"Nyíradony, Hajdú-Bihar, Hungary, Europe","lat":"47.6880","long":"21.9101","surl":"nyiradonyido.in/","fcode":"wx","nets":"HUWN","conds":"Offline"},

 {"town":"Gyöngyöstarján, Heves, Hungary, Europe","lat":"47.81200","long":"19.86199","surl":"www.olilaci.hu/","fcode":"wx","nets":"HUWN","conds":"day_partly_cloudy.gif,Stopped Raining,3 C,70%,-2 C,WNW,9 kmh,9,0.0 mm,1013.0 hPa,Falling Slowly"},

 {"town":"Heréd, Heves, Hungary, Europe","lat":"47.7034","long":"19.6393","surl":"www.komzoli.hu/index.php","fcode":"all","nets":"HUWN","conds":"night_clear.gif,Clear,4 C,71%,-1 C,ENE,0 kmh,,0.0 mm,1014.0 hPa,Rising Slowly"},

 {"town":"Kisköre, Heves, Hungary, Europe","lat":"47.49833","long":"20.49350","surl":"www.juhasz-jozsef.hu","fcode":"wx","nets":"HUWN","conds":"Offline"},

 {"town":"Esztergom, Komárom-Esztergom, Hungary, Europe","lat":"47.7933","long":"18.74193","surl":"www.lugol.hu/","fcode":"cam","nets":"HUWN","conds":"day_cloudy.gif,Overcast,5 C,83%,2 C,S,0 kmh,1,0.0 mm,1002.0 hPa,Rising Slowly"},

 {"town":"Kartal, Pest, Hungary, Europe","lat":"47.667507","long":"19.528242","surl":"www.huweather.com/index.php","fcode":"all","nets":"HUWN","conds":"Offline"},

 {"town":"Veresegyház, Pest, Hungary, Europe","lat":"47.663075","long":"19.285126","surl":"www.captainbc.hu/wov/","fcode":"wx","nets":"HUWN","conds":"day_clear.gif,Dry,2 C,93%,1 C,WNW,0 kmh,,0.0 mm,1014.5 hPa,Steady"},

 {"town":"Zamárdi, Somogy, Hungary, Europe","lat":"46.8870","long":"17.9606","surl":"www.zamardiidojarasa.hu","fcode":"wx","nets":"HUWN","conds":"day_clear.gif,Dry,6 C,84%,3 C,SSW,0 kmh,,0.0 mm,1014.9 hPa,Rising Slowly"},

 {"town":"Nyiregyháza, Szabolcs, Hungary, Europe","lat":"47.92304","long":"21.72865","surl":"www.nyiregymet.hu/index.php","fcode":"all","nets":"HUWN","conds":"day_cloudy.gif,Overcast,2 C,97%,2 C,NNE,0 kmh,,0.0 mm,1015.0 hPa,Rising Slowly"},

 {"town":"Mucsi, Tolna, Hungary, Europe","lat":"46.502173","long":"18.407593","surl":"www.mutsching.eu","fcode":"wx","nets":"HUWN","conds":"day_clear.gif,Dry,6 C,99%,6 C,NE,0 kmh,3,0.0 mm,1014.0 hPa,Steady"},

 {"town":"Szekszárd, Tolna, Hungary, Europe","lat":"46.3493","long":"18.7053","surl":"www.endusz.hu/wdl/index.html","fcode":"cam","nets":"HUWN","conds":"day_clear.gif,Sunny,7 C,96%,6 C,NW,2 kmh,5,0.0 mm,1016.0 hPa,Steady"},

 {"town":"Nagyvázsony, Veszprém, Hungary, Europe","lat":"46.98236","long":"17.69837","surl":"www.bio-info.hu","fcode":"wx","nets":"HUWN","conds":"day_clear.gif,Dry,5 C,86%,3 C,WSW,0 kmh,,0.0 mm,1015.6 hPa,Steady"},

 {"town":"Veszprém, Veszprém, Hungary, Europe","lat":"47.0876092","long":"17.9280618","surl":"www.palmay.hu/","fcode":"all","nets":"HUWN","conds":"day_cloudy.gif,Overcast,4 C,83%,1 C,W,3 kmh,2,0.0 mm,1015.0 hPa,Steady"},

 {"town":"Keszthely, Zala, Hungary, Europe","lat":"46.75447","long":"17.24878","surl":"www.palfizoltan.hu","fcode":"all","nets":"HUWN","conds":"day_partly_cloudy.gif,Partly Cloudy,6 C,95%,5 C,NNW,0 kmh,,0.0 mm,1016.7 hPa,Steady"},

 {"town":"Vonyarcvashegy, Zala, Hungary, Europe","lat":"46.7607967","long":"17.3246026","surl":"www.palfizoltan.hu","fcode":"wx","nets":"HUWN","conds":"day_cloudy.gif,Overcast,6 C,97%,6 C,N,4 kmh,3,0.0 mm,1018.0 hPa,Steady"},

 {"town":"Reykjavik, Iceland, Europe","lat":"64.091","long":"-21.822","surl":"www.ice.is/vedur/","fcode":"wx","nets":"Nordic","conds":",,5 C,95%,5 C,N,1.0 m/s,0.0,1.8 mm,988.5 hPa,Rising"},

 {"town":"Belfast, Co. Antrim, Ireland, Europe","lat":"54.585","long":"-5.939","surl":"www.qub.ac.uk/schools/gap/AboutUs/GAPWeatherStation/","fcode":"cam","nets":"IRLWN","conds":"night_clear.gif,Clear,13 C,94%,12 C,SSW,5 kmh,5,0.6 mm,1000.7 mb,Steady"},

 {"town":"Cloughfern, Co. Antrim, Ireland, Europe","lat":"53.3452","long":"-6.3755","surl":"sproule.co.uk/","fcode":"all","nets":"IRLWN","conds":"night_light_rain.gif,Showers,13 C,100%,13 C,S,7 kmh,7,0.6 mm,1001.1 mb,Falling Slowly"},

 {"town":"Blackstairs, Co. Carlow, Ireland, Europe","lat":"52.66","long":"-6.71","surl":"www.reachbroadband.com/weather/","fcode":"wx","nets":"IRLWN","conds":"night_clear.gif,Clear,11 C,100%,11 C,SSE,19 kmh,13,3.0 mm,1004.5 mb,Steady"},

 {"town":"Tullow, Co. Carlow, Ireland, Europe","lat":"54.0015","long":"-6.37194","surl":"www.carlowweather.com/","fcode":"cam","nets":"IRLWN","conds":"night_clear.gif,Clear,13 C,99%,12 C,ESE,17 kmh,18,1.3 mm,1000.4 mb,Steady"},

 {"town":"Baltimore, Co. Cork, Ireland, Europe","lat":"51.4847","long":"-9.36889","surl":"www.aquaventures.ie/","fcode":"cam","nets":"IRLWN","conds":"night_light_rain.gif,Showers,13 C,95%,12 C,NW,7 kmh,3,5.1 mm,1000.3 mb,Steady"},

 {"town":"Bangor, Co. Down, Ireland, Europe","lat":"54.8535","long":"-5.79883","surl":"www.qub.ac.uk/schools/gap/AboutUs/GAPWeatherStation/","fcode":"wx","nets":"IRLWN","conds":"night_clear.gif,Clear,13 C,95%,12 C,N,0 kmh,,0.0 mm,1001.4 mb,Steady"},

 {"town":"Newcastle, Co. Down, Ireland, Europe","lat":"54.225","long":"-5.8866","surl":"www.coldanddamp.com","fcode":"wx","nets":"IRLWN","conds":"night_partly_cloudy.gif,Partly Cloudy,13 C,95%,12 C,SW,2 kmh,2,6.2 mm,1006.0 mb,Falling Slowly"},

 {"town":"Earlscliffe, Co. Dublin, Ireland, Europe","lat":"53.3651","long":"-6.0716","surl":"www.earlscliffe.com","fcode":"wx","nets":"IRLWN","conds":"night_clear.gif,Clear,13 C,99%,13 C,NE,0 kmh,3,0.3 mm,1002.9 mb,Steady"},

 {"town":"Howth, Co. Dublin, Ireland, Europe","lat":"53.3728","long":"-6.0569","surl":"www.islandbawn.com/","fcode":"cam","nets":"IRLWN","conds":"night_clear.gif,Clear,12 C,100%,12 C,S,22 kmh,26,0.2 mm,1000.9 mb,Falling"},

 {"town":"Shankill, Co. Dublin, Ireland, Europe","lat":"53.2318","long":"-6.12036","surl":"shankillweather.com/","fcode":"","nets":"IRLWN","conds":"day_rain.gif,Rain2,13 C,96%,12 C,N,0 kmh,,0.0 mm,991.2 mb,Steady"},

 {"town":"Derrygonnelly, Co. Fermanagh, Ireland, Europe","lat":"54.418","long":"-7.822","surl":"www.qub.ac.uk/schools/gap/AboutUs/GAPWeatherStation/","fcode":"wx","nets":"IRLWN","conds":"night_rain.gif,Rain,12 C,97%,12 C,SSW,2 kmh,3,2.6 mm,992.7 mb,Steady"},

 {"town":"Galway City, Co. Galway, Ireland, Europe","lat":"53.2845","long":"-9.06709","surl":"www.galwaycityweather.com","fcode":"wx","nets":"IRLWN","conds":"night_clear.gif,Clear,12 C,97%,11 C,NW,10 kmh,10,5.4 mm,1001.0 mb,Steady"},

 {"town":"Moycullen, Co. Galway, Ireland, Europe","lat":"53.5767","long":"-9.66472","surl":"www.moycullenweather.com/","fcode":"cam","nets":"IRLWN","conds":"night_clear.gif,Clear,11 C,96%,10 C,NW,12 kmh,19,2.0 mm,1001.7 mb,Steady"},

 {"town":"Oranmore, Co. Galway, Ireland, Europe","lat":"53.2745","long":"-8.9306","surl":"www.oranmoreweather.com","fcode":"wx","nets":"IRLWN","conds":"night_light_rain.gif,Showers,12 C,96%,12 C,NW,9 kmh,8,9.0 mm,1001.1 mb,Steady"},

 {"town":"Ventry, Co. Kerry, Ireland, Europe","lat":"52.1344","long":"-10.399","surl":"ventryweather.com","fcode":"wx","nets":"IRLWN","conds":"night_partly_cloudy.gif,Partly Cloudy,11 C,96%,10 C,NE,7 kmh,3,6.0 mm,1003.5 mb,Steady"},

 {"town":"Kill Village, Co. Kildare, Ireland, Europe","lat":"53.2739","long":"-8.04194","surl":"www.killvillage-weather.com","fcode":"wx","nets":"IRLWN","conds":"night_clear.gif,Clear,13 C,89%,12 C,ESE,0 kmh,,0.0 mm,999.1 mb,Steady"},

 {"town":"Naas, Co. Kildare, Ireland, Europe","lat":"53.212","long":"-6.67606","surl":"www.naasweather.com","fcode":"wx","nets":"IRLWN","conds":"night_clear.gif,Clear,13 C,93%,12 C,SE,5 kmh,3,0.0 mm,998.7 mb,Steady"},

 {"town":"Kilkenny, Co. Kilkenny, Ireland, Europe","lat":"52.662","long":"-7.254","surl":"www.kilkennyweather.com/","fcode":"cam","nets":"IRLWN","conds":"fog.gif,Fog,14 C,98%,14 C,ESE,0 kmh,,5.6 mm,1002.6 mb,Steady"},

 {"town":"Durrow, Co. Laois, Ireland, Europe","lat":"52.845","long":"-7.388","surl":"live.laoisweather.com/","fcode":"all","nets":"IRLWN","conds":"fog.gif,Fog,13 C,94%,12 C,ENE,1 kmh,6,4.6 mm,999.2 mb,Steady"},

 {"town":"Knockbridge, Co. Louth, Ireland, Europe","lat":"53.9704","long":"-6.4894","surl":"www.dundalkweather.com/","fcode":"wx","nets":"IRLWN","conds":"night_rain.gif,Rain,12 C,100%,12 C,ESE,11 kmh,8,0.8 mm,1001.7 mb,Steady"},

 {"town":"Ballycroy, Co. Mayo, Ireland, Europe","lat":"54.068","long":"-9.832","surl":"www.lagduff.com/weather","fcode":"wx","nets":"IRLWN","conds":"night_clear.gif,Clear,10 C,95%,10 C,NE,3 kmh,2,9.2 mm,1002.4 mb,Steady"},

 {"town":"Carrowhawny, Co. Mayo, Ireland, Europe","lat":"53.8055","long":"-9.52611","surl":"www.carrowhawny.com","fcode":"wx","nets":"IRLWN","conds":"night_rain.gif,Rain,11 C,96%,10 C,NW,8 kmh,8,7.4 mm,1000.9 mb,Steady"},

 {"town":"Carrickmacross, Co. Monaghan, Ireland, Europe","lat":"53.9771","long":"-6.71951","surl":"carrickmacrossweather.com","fcode":"wx","nets":"IRLWN","conds":"night_rain.gif,Rain,12 C,94%,11 C,E,1 kmh,1,1.2 mm,998.8 mb,Steady"},

 {"town":"Roscrea, Co. Tipperary, Ireland, Europe","lat":"55.1223","long":"-6.66149","surl":"www.roscreawx.com","fcode":"wx","nets":"IRLWN","conds":"night_rain.gif,Rain,13 C,98%,13 C,NW,0 kmh,,15.3 mm,999.0 mb,Steady"},

 {"town":"Tattynure, Co. Tyrone, Ireland, Europe","lat":"54.67","long":"-7.32","surl":"weather.archdale.ie","fcode":"wx","nets":"IRLWN","conds":"night_rain.gif,Rain,13 C,99%,13 C,ESE,1 kmh,5,0.4 mm,999.9 mb,Steady"},

 {"town":"Tramore, Co. Waterford, Ireland, Europe","lat":"52.162","long":"-7.153","surl":"tramoreweathercam.com/","fcode":"cam","nets":"IRLWN","conds":"night_rain.gif,Rain,13 C,99%,13 C,SE,6 kmh,,2.2 mm,999.1 mb,Steady"},

 {"town":"Waterford City, Co. Waterford, Ireland, Europe","lat":"52.4952","long":"-6.4155","surl":"www.waterfordcityweather.com/index.php","fcode":"cam","nets":"IRLWN","conds":"night_rain.gif,Rain,14 C,98%,14 C,SE,12 kmh,13,4.0 mm,998.2 mb,Steady"},

 {"town":"Killucan, Co. Westmeath, Ireland, Europe","lat":"53.5006","long":"-7.11139","surl":"www.irlweather.com/","fcode":"all","nets":"IRLWN","conds":"night_clear.gif,Clear,13 C,97%,12 C,ESE,3 kmh,5,1.6 mm,999.7 mb,Steady"},

 {"town":"Carne Beach, Co. Wexford, Ireland, Europe","lat":"52.1984","long":"-6.3531","surl":"www.weather.carnebeach.com","fcode":"wx","nets":"IRLWN","conds":"na.gif,,14 C,--%,,WSW,16 kmh,26,0.3 mm,996.9 mb,Steady"},

 {"town":"Rosslare, Co. Wexford, Ireland, Europe","lat":"53.2779","long":"-6.12973","surl":"www.ei2jp.org/weather/RosslareStrand/index.php","fcode":"wx","nets":"IRLWN","conds":"na.gif,,13 C,92%,12 C,ESE,19 kmh,18,0.0 mm,1003.5 mb,Steady"},

 {"town":"Ashford, Co. Wicklow, Ireland, Europe","lat":"53.0249","long":"-6.07482","surl":"www.wicklowweather.com/","fcode":"wx","nets":"IRLWN","conds":"day_rain.gif,Rain2,13 C,97%,13 C,SSW,10 kmh,21,2.3 mm,1001.5 mb,Falling Rapidly"},

 {"town":"Bray, Co. Wicklow, Ireland, Europe","lat":"52.7587","long":"-7.18368","surl":"www.brayweather.com/","fcode":"wx","nets":"IRLWN","conds":"night_heavy_rain.gif,Heavy Rain,13 C,97%,12 C,ESE,8 kmh,7,2.0 mm,999.8 mb,Steady"},

 {"town":"Ardglass, Co. n/a, Ireland, Europe","lat":"54.2711","long":"-5.62667","surl":"www.ardglassweather.com/index.htm","fcode":"wx","nets":"IRLWN","conds":"night_partly_cloudy.gif,Partly Cloudy,12 C,99%,12 C,SSE,10 kmh,15,1.5 mm,1003.7 mb,Steady"},

 {"town":"Artane, Co. n/a, Ireland, Europe","lat":"51.853","long":"-8.29","surl":"www.jfkireland.com/wdl.html","fcode":"wx","nets":"IRLWN","conds":"night_clear.gif,Clear,13 C,91%,11 C,ENE,4 kmh,4,0.7 mm,999.3 mb,Falling Slowly"},

 {"town":"Blackrock Castle, Co. n/a, Ireland, Europe","lat":"51.8999","long":"-8.40287","surl":"www.bco.ie/adrian/weather/","fcode":"wx","nets":"IRLWN","conds":"night_light_rain.gif,Showers,14 C,97%,13 C,SW,6 kmh,8,21.6 mm,1000.3 mb,Steady"},

 {"town":"Causeway, Co. n/a, Ireland, Europe","lat":"55.234","long":"-6.518","surl":"www.qub.ac.uk/schools/gap/AboutUs/GAPWeatherStation/SupportedStations/","fcode":"wx","nets":"IRLWN","conds":"night_clear.gif,Clear,13 C,94%,12 C,SSE,23 kmh,13,0.0 mm,1001.8 mb,Steady"},

 {"town":"Downpatrick, Co. n/a, Ireland, Europe","lat":"54.3172","long":"-5.72789","surl":"www.downpatrickweather.com","fcode":"wx","nets":"IRLWN","conds":"night_partly_cloudy.gif,Partly Cloudy,13 C,92%,12 C,S,11 kmh,17,8.4 mm,1000.7 mb,Steady"},

 {"town":"Edernish, Co. n/a, Ireland, Europe","lat":"51.9004","long":"-8.5629","surl":"edernish.com/index.php?id=876","fcode":"wx","nets":"IRLWN","conds":"night_rain.gif,Rain,12 C,96%,11 C,NW,22 kmh,21,8.1 mm,1000.7 mb,Steady"},

 {"town":"Hill of Allen, Co. n/a, Ireland, Europe","lat":"53.231","long":"-6.85589","surl":"www.irishdogs.ie/weather","fcode":"wx","nets":"IRLWN","conds":"night_clear.gif,Clear,13 C,96%,12 C,S,9 kmh,12,1.2 mm,998.4 mb,Steady"},

 {"town":"Omagh, Co. n/a, Ireland, Europe","lat":"54.6121","long":"-7.26778","surl":"www.omaghweather.com","fcode":"wx","nets":"IRLWN","conds":"night_rain.gif,Rain,13 C,100%,13 C,E,6 kmh,5,0.3 mm,999.4 mb,Steady"},

 {"town":"Tully More, Co. n/a, Ireland, Europe","lat":"52.312","long":"-9.626","surl":"www.srima.ie","fcode":"wx","nets":"IRLWN","conds":"day_partly_cloudy.gif,Cloudy,10 C,87%,8 C,NW,6 kmh,11,12.9 mm,997.4 mb,Steady"},

 {"town":"Tyrrellapass , Co. n/a, Ireland, Europe","lat":"52.748","long":"-7.552","surl":"wx1.lightnet.ie/","fcode":"wx","nets":"IRLWN","conds":"night_rain.gif,Rain,12 C,99%,12 C,NW,9 kmh,13,1.5 mm,1001.2 mb,Steady"},

 {"town":"Wexford Harbour, Co. n/a, Ireland, Europe","lat":"52.3419","long":"-6.4616","surl":"www.wexfordharbour.info","fcode":"wx","nets":"IRLWN","conds":"night_rain.gif,Rain,14 C,96%,14 C,SE,26 kmh,25,1.0 mm,1001.0 mb,Steady"},

 {"town":"Chieti, (CH), Abruzzo, Italy, Europe","lat":"42.356161","long":"14.138183","surl":"www.chietimeteo.altervista.org/","fcode":"wx","nets":"ITAWN","conds":"day_cloudy.gif,Mostly Cloudy,14 C,95%,14 C,ESE,0 kmh,6,0.0 mm,1011.3 hPa,Rising"},

 {"town":"Controguerra, (TE), Abruzzo, Italy, Europe","lat":"+42.886962","long":"+13.913194","surl":"www.controguerralive.altervista.org/","fcode":"wx","nets":"ITAWN","conds":"day_clear.gif,Dry,16 C,93%,15 C,SW,1 kmh,2,0.0 mm,1006.8 hPa,Steady"},

 {"town":"Spoltore, (PE), Abruzzo, Italy, Europe","lat":"+42.454604","long":"+14.144897","surl":"meteofax.altervista.org/","fcode":"wx","nets":"ITAWN","conds":"Offline"},

 {"town":"Vasto, (CH), Abruzzo, Italy, Europe","lat":"+42.078333","long":"+14.744166","surl":"www.massacesi.jimdo.com/","fcode":"wx","nets":"ITAWN","conds":"Offline"},

 {"town":"Barletta, (BA), Apulia, Italy, Europe","lat":"41.319885","long":"16.279185","surl":"www.meteobarletta.org/","fcode":"wx","nets":"ITAWN","conds":"day_clear.gif,Dry,17 C,83%,14 C,WSW,0 kmh,,0.0 mm,1006.2 hPa,Steady"},

 {"town":"Novoli, (LE), Apulia, Italy, Europe","lat":"40.378128","long":"18.050537","surl":"www.meteonovoli.it/","fcode":"cam","nets":"ITAWN","conds":"day_partly_cloudy.gif,Partly Cloudy,15 C,91%,13 C,SSW,0 kmh,,0.0 mm,1009.4 hPa,Steady"},

 {"town":"Taranto, (TA), Apulia, Italy, Europe","lat":"40.4692383","long":"17.2400088","surl":"www.meteo.taranto.it/","fcode":"wx","nets":"ITAWN","conds":"Offline"},

 {"town":"Tuglie, (LE), Apulia, Italy, Europe","lat":"+40.0736579353737","long":"+18.0991201393772","surl":"www.tuglie.com/previsioni.asp","fcode":"wx","nets":"ITAWN","conds":"day_clear.gif,Dry,18 C,82%,15 C,ENE,2 kmh,6,0.0 mm,1009.9 hPa,Steady"},

 {"town":"Marconia, (MT), Basilicata, Italy, Europe","lat":"40.355833","long":"16.684444","surl":"www.meteomarconia.it/","fcode":"wx","nets":"ITAWN","conds":",,17 C,99%,17 C,W,4 kmh,9,0.0 mm,1006.7 hPa,Steady"},

 {"town":"Pisticci, (MT), Basilicata, Italy, Europe","lat":"+40.388762","long":"+16.558323","surl":"www.meteomarconia.it","fcode":"wx","nets":"ITAWN","conds":"night_clear.gif,Clear,16 C,89%,14 C,N,3 kmh,2,0.0 mm,1004.9 hPa,Steady"},

 {"town":"Catanzaro, (CZ), Calabria, Italy, Europe","lat":"+38.922129","long":"+16.589198","surl":"www.catanzarometeo.it","fcode":"wx","nets":"ITAWN","conds":"mist.gif,Mist,18 C,71%,13 C,NW,7 kmh,8,0.0 mm,1011.0 hPa,Steady"},

 {"town":"Luzzi, (CS), Calabria, Italy, Europe","lat":"39.445869","long":"16.29134","surl":"www.iw8rpq.altervista.org/","fcode":"cam","nets":"ITAWN","conds":"Offline"},

 {"town":"Praia a Mare, (CS), Calabria, Italy, Europe","lat":"39.885314601726804","long":"15.784220695495605","surl":"www.lidodarsena.it/meteolive/praiaamare/index.php","fcode":"all","nets":"ITAWN","conds":"day_rain.gif,Rain,18 C,76%,14 C,N,0 kmh,,0.0 mm,1008.9 hPa,Steady"},

 {"town":"Tropea, (VV), Calabria, Italy, Europe","lat":"+38.6796","long":"+15.8963","surl":"www.meteotropea.it/","fcode":"cam","nets":"ITAWN","conds":"Offline"},

 {"town":"Cava de' Tirreni, (SA), Campania, Italy, Europe","lat":"40.7015","long":"14.6990","surl":"www.meteocava.it/","fcode":"cam","nets":"ITAWN","conds":"day_clear.gif,Dry,20 C,100%,20 C,SW,0 kmh,,0.0 mm,1007.6 hPa,Steady"},

 {"town":"Ercolano, (NA), Campania, Italy, Europe","lat":"40.80466","long":"14.35350","surl":"www.meteoercolano.it/","fcode":"all","nets":"ITAWN","conds":"day_clear.gif,Dry,21 C,76%,16 C,ENE,7 kmh,5,0.0 mm,1012.5 hPa,Rising Slowly"},

 {"town":"Montoro Inf., (AV), Campania, Italy, Europe","lat":"+40.832238","long":"+14.760132","surl":"www.montorometeo.altervista.org/","fcode":"wx","nets":"ITAWN","conds":"day_clear.gif,Clear,13 C,99%,13 C,E,1 kmh,4,0.0 mm,1009.5 hPa,Steady"},

 {"town":"Torre Annunziata, (NA), Campania, Italy, Europe","lat":"+40.754055","long":"+14.450913","surl":"www.meteotorre.altervista.org","fcode":"wx","nets":"ITAWN","conds":"day_partly_cloudy.gif,Cloudy,19 C,87%,17 C,SW,2 kmh,3,0.0 mm,1010.0 hPa,Steady"},

 {"town":"Bellaria Igea Marina, (RN), Emilia Romagna, Italy, Europe","lat":"+44.14448","long":"+12.46423","surl":"www.meteobellaria.altervista.org","fcode":"wx","nets":"ITAWN","conds":"day_partly_cloudy.gif,Scattered Clouds,15 C,98%,15 C,O,6 kmh,9,0.0 mm,1010.2 hPa,Steady"},

 {"town":"Bellaria, (RN), Emilia Romagna, Italy, Europe","lat":"44.148115","long":"12.459477","surl":"www.bellariameteo.it/","fcode":"cam","nets":"ITAWN","conds":"day_clear.gif,Dry,15 C,91%,13 C,WNW,0 kmh,,0.0 mm,1009.7 hPa,Steady"},

 {"town":"Carpi, (MO), Emilia Romagna, Italy, Europe","lat":"+44.721","long":"+10.886","surl":"www.meteopek.altervista.org/","fcode":"wx","nets":"ITAWN","conds":"Offline"},

 {"town":"Fiumalbo Doccia Cimone, (MO), Emilia Romagna, Italy, Europe","lat":"44.112476","long":"10.402262","surl":"www.lacapannadeicelti.com/","fcode":"cam","nets":"ITAWN","conds":"Offline"},

 {"town":"Gossolengo, (PC), Emilia Romagna, Italy, Europe","lat":"+45.0073","long":"+9.617","surl":"piacenzameteo.altervista.org/index.php","fcode":"wx","nets":"ITAWN","conds":"Offline"},

 {"town":"Masiera di Bagnacavallo, (RA), Emilia Romagna, Italy, Europe","lat":"44.445035","long":"11.974190","surl":"www.meteomasiera.it/","fcode":"cam","nets":"ITAWN","conds":"day_clear.gif,Dry,15 C,93%,14 C,NW,2 kmh,3,0.0 mm,1005.5 hPa,Steady"},

 {"town":"Porto Fuori, (RA), Emilia Romagna, Italy, Europe","lat":"44.40560","long":"12.2479","surl":"portofuorimeteo.altervista.org/","fcode":"wx","nets":"ITAWN","conds":"Offline"},

 {"town":"Prignano sulla Secchia, (MO), Emilia Romagna, Italy, Europe","lat":"+44.437414","long":"+10.690483","surl":"prignanometeo.altervista.org","fcode":"wx","nets":"ITAWN","conds":"mist.gif,Mist,14 C,91%,12 C,ENE,0 kmh,,0.0 mm,1010.4 hPa,Steady"},

 {"town":"Ravenna, (RA), Emilia Romagna, Italy, Europe","lat":"+44.77277","long":"+12.21222","surl":"marcomontanariweb.it/wordpress/meteo/cumulus/images/index.htm","fcode":"wx","nets":"ITAWN","conds":"Offline"},

 {"town":"Rimini, (RN), Emilia Romagna, Italy, Europe","lat":"+44.051","long":"+12.565","surl":"mcmeteo.altervista.org/index.html","fcode":"wx","nets":"ITAWN","conds":"night_partly_cloudy.gif,Scattered Clouds,16 C,89%,14 C,WNW,0 kmh,,0.0 mm,1011.2 hPa,Steady"},